[{"name": "\u5317\u4eac\u897f\u7ad9", "location": {"lat": 39.900677, "lng": 116.327811}, "address": "\u5730\u94c17\u53f7\u7ebf;\u5730\u94c19\u53f7\u7ebf", "province": "\u5317\u4eac\u5e02", "city": "\u5317\u4eac\u5e02", "area": "\u4e30\u53f0\u533a", "detail": 1, "uid": "d70673ae8f490e0d95ca0795"}, {"name": "\u5c06\u53f0", "location": {"lat": 39.97696, "lng": 116.496253}, "address": "\u5730\u94c114\u53f7\u7ebf\u4e1c\u6bb5", "province": "\u5317\u4eac\u5e02", "city": "\u5317\u4eac\u5e02", "area": "\u671d\u9633\u533a", "detail": 1, "uid": "f1e901e18e5846e017948e1c"}, {"name": "\u4e09\u5143\u6865", "location": {"lat": 39.96688, "lng": 116.463573}, "address": "\u5730\u94c110\u53f7\u7ebf;\u673a\u573a\u7ebf", "province": "\u5317\u4eac\u5e02", "city": "\u5317\u4eac\u5e02", "area": "\u671d\u9633\u533a", "detail": 1, "uid": "7becb6042407fd57dd1e52de"}, {"name": "\u5965\u6797\u5339\u514b\u516c\u56ed", "location": {"lat": 40.007852, "lng": 116.398711}, "address": "\u5730\u94c115\u53f7\u7ebf;\u5730\u94c18\u53f7\u7ebf", "province": "\u5317\u4eac\u5e02", "city": "\u5317\u4eac\u5e02", "area": "\u671d\u9633\u533a", "detail": 1, "uid": "5644cf50f6cf052382a12ec3"}, {"name": "\u671b\u4eac\u5357", "location": {"lat": 39.990534, "lng": 116.488454}, "address": "\u5730\u94c114\u53f7\u7ebf\u4e1c\u6bb5", "province": "\u5317\u4eac\u5e02", "city": "\u5317\u4eac\u5e02", "area": "\u671d\u9633\u533a", "detail": 1, "uid": "65f410b6ddc6027a2b3a9f3d"}, {"name": "\u4e0a\u5730", "location": {"lat": 40.038699, "lng": 116.326836}, "address": "\u5730\u94c113\u53f7\u7ebf", "province": "\u5317\u4eac\u5e02", "city": "\u5317\u4eac\u5e02", "area": "\u6d77\u6dc0\u533a", "detail": 1, "uid": "32612b100e275909110daade"}, {"name": "\u73e0\u5e02\u53e3", "location": {"lat": 39.897186, "lng": 116.405037}, "address": "\u5730\u94c17\u53f7\u7ebf;\u5730\u94c18\u53f7\u7ebf\u5357\u6bb5", "province": "\u5317\u4eac\u5e02", "city": "\u5317\u4eac\u5e02", "area": "\u4e1c\u57ce\u533a", "detail": 1, "uid": "0ad513bdf03d7222882fb510"}, {"name": "\u5317\u4eac\u5357\u7ad9", "location": {"lat": 39.870965, "lng": 116.385169}, "address": "\u5730\u94c114\u53f7\u7ebf\u4e1c\u6bb5;\u5730\u94c14\u53f7\u7ebf\u5927\u5174\u7ebf", "province": "\u5317\u4eac\u5e02", "city": "\u5317\u4eac\u5e02", "area": "\u4e30\u53f0\u533a", "detail": 1, "uid": "c05bf27fd828662ff423105f"}, {"name": "\u65b0\u5bab", "location": {"lat": 39.818302, "lng": 116.372097}, "address": "\u5730\u94c14\u53f7\u7ebf\u5927\u5174\u7ebf", "province": "\u5317\u4eac\u5e02", "city": "\u5317\u4eac\u5e02", "area": "\u4e30\u53f0\u533a", "detail": 1, "uid": "888bb80548045569f23cba6d"}, {"name": "\u5927\u671b\u8def", "location": {"lat": 39.914424, "lng": 116.48342}, "address": "\u5730\u94c114\u53f7\u7ebf\u4e1c\u6bb5;\u5730\u94c11\u53f7\u7ebf", "province": "\u5317\u4eac\u5e02", "city": "\u5317\u4eac\u5e02", "area": "\u671d\u9633\u533a", "detail": 1, "uid": "2932e60e8703c20b0b5cb3de"}, {"name": "\u540c\u6d4e\u5357\u8def", "location": {"lat": 39.779147, "lng": 116.546383}, "address": "\u5730\u94c1\u4ea6\u5e84\u7ebf", "province": "\u5317\u4eac\u5e02", "city": "\u5317\u4eac\u5e02", "area": "\u901a\u5dde\u533a", "detail": 1, "uid": "e5940413e1d36cf6ef74f86d"}, {"name": "\u5965\u4f53\u4e2d\u5fc3", "location": {"lat": 39.992442, "lng": 116.400191}, "address": "\u5730\u94c18\u53f7\u7ebf", "province": "\u5317\u4eac\u5e02", "city": "\u5317\u4eac\u5e02", "area": "\u671d\u9633\u533a", "detail": 1, "uid": "27aebfcb97b74d5e63180929"}, {"name": "\u9752\u5e74\u8def", "location": {"lat": 39.929469, "lng": 116.523829}, "address": "\u5730\u94c16\u53f7\u7ebf", "province": "\u5317\u4eac\u5e02", "city": "\u5317\u4eac\u5e02", "area": "\u671d\u9633\u533a", "detail": 1, "uid": "1bac2f1440a0a7beadee7acc"}, {"name": "\u60e0\u65b0\u897f\u8857\u5317\u53e3", "location": {"lat": 39.994151, "lng": 116.423532}, "address": "\u5730\u94c15\u53f7\u7ebf", "province": "\u5317\u4eac\u5e02", "city": "\u5317\u4eac\u5e02", "area": "\u671d\u9633\u533a", "detail": 1, "uid": "bddbec23a31a0b2bfa2213de"}, {"name": "\u79ef\u6c34\u6f6d", "location": {"lat": 39.954765, "lng": 116.379185}, "address": "\u5730\u94c12\u53f7\u7ebf", "province": "\u5317\u4eac\u5e02", "city": "\u5317\u4eac\u5e02", "area": "\u897f\u57ce\u533a", "detail": 1, "uid": "025c390223e487e1d1ff23de"}, {"name": "\u4e2d\u5173\u6751", "location": {"lat": 39.989956, "lng": 116.323066}, "address": "\u5730\u94c14\u53f7\u7ebf\u5927\u5174\u7ebf", "province": "\u5317\u4eac\u5e02", "city": "\u5317\u4eac\u5e02", "area": "\u6d77\u6dc0\u533a", "detail": 1, "uid": "33ada2df36beb45380288a28"}, {"name": "\u671b\u4eac\u4e1c", "location": {"lat": 40.00927, "lng": 116.4933}, "address": "\u5730\u94c115\u53f7\u7ebf", "province": "\u5317\u4eac\u5e02", "city": "\u5317\u4eac\u5e02", "area": "\u671d\u9633\u533a", "detail": 1, "uid": "df4c0dec195dc46d715e8079"}, {"name": "\u4e94\u68f5\u677e", "location": {"lat": 39.913833, "lng": 116.280423}, "address": "\u5730\u94c11\u53f7\u7ebf", "province": "\u5317\u4eac\u5e02", "city": "\u5317\u4eac\u5e02", "area": "\u6d77\u6dc0\u533a", "detail": 1, "uid": "53889c15034f2e3f58bbbcde"}, {"name": "\u738b\u5e9c\u4e95", "location": {"lat": 39.914398, "lng": 116.417796}, "address": "\u5730\u94c11\u53f7\u7ebf", "province": "\u5317\u4eac\u5e02", "city": "\u5317\u4eac\u5e02", "area": "\u4e1c\u57ce\u533a", "detail": 1, "uid": "0b163ed2266fb36677e5b6de"}, {"name": "\u671d\u9633\u95e8", "location": {"lat": 39.930549, "lng": 116.440635}, "address": "\u5730\u94c12\u53f7\u7ebf;\u5730\u94c16\u53f7\u7ebf", "province": "\u5317\u4eac\u5e02", "city": "\u5317\u4eac\u5e02", "area": "\u671d\u9633\u533a", "detail": 1, "uid": "19f06b69d2a493b92a06cede"},{"name": "T3\u822a\u7ad9\u697c", "location": {"lat": 40.058887, "lng": 116.621643}, "address": "\u673a\u573a\u7ebf", "province": "\u5317\u4eac\u5e02", "city": "\u5317\u4eac\u5e02", "area": "\u987a\u4e49\u533a", "detail": 1, "uid": "5511d1c3b7af2058d02dd6df"}, {"name": "\u77f3\u95e8", "location": {"lat": 40.136314, "lng": 116.647499}, "address": "\u5730\u94c115\u53f7\u7ebf", "province": "\u5317\u4eac\u5e02", "city": "\u5317\u4eac\u5e02", "area": "\u987a\u4e49\u533a", "detail": 1, "uid": "8a6f52e2f91d160e6cc02cac"}, {"name": "\u5317\u82d1\u8def\u5317", "location": {"lat": 40.036821, "lng": 116.424525}, "address": "\u5730\u94c15\u53f7\u7ebf", "province": "\u5317\u4eac\u5e02", "city": "\u5317\u4eac\u5e02", "area": "\u671d\u9633\u533a", "detail": 1, "uid": "bc362b624525bbe9c5f50dde"}, {"name": "\u4eae\u9a6c\u6865", "location": {"lat": 39.955006, "lng": 116.468743}, "address": "\u5730\u94c110\u53f7\u7ebf", "province": "\u5317\u4eac\u5e02", "city": "\u5317\u4eac\u5e02", "area": "\u671d\u9633\u533a", "detail": 1, "uid": "712f82007b19e457ebf853de"}, {"name": "\u8f66\u9053\u6c9f", "location": {"lat": 39.954895, "lng": 116.300274}, "address": "\u5730\u94c110\u53f7\u7ebf", "province": "\u5317\u4eac\u5e02", "city": "\u5317\u4eac\u5e02", "area": "\u6d77\u6dc0\u533a", "detail": 1, "uid": "88e50a11a3f0eefe00294fcc"}, {"name": "\u540e\u6c99\u5cea", "location": {"lat": 40.119865, "lng": 116.570793}, "address": "\u5730\u94c115\u53f7\u7ebf", "province": "\u5317\u4eac\u5e02", "city": "\u5317\u4eac\u5e02", "area": "\u987a\u4e49\u533a", "detail": 1, "uid": "069905e493fd1da9c62ba16d"}, {"name": "\u660c\u5e73", "location": {"lat": 40.226351, "lng": 116.240088}, "address": "\u5730\u94c1\u660c\u5e73\u7ebf", "province": "\u5317\u4eac\u5e02", "city": "\u5317\u4eac\u5e02", "area": "\u660c\u5e73\u533a", "detail": 1, "uid": "6e7f9b93145a1ab24e776e91"}, {"name": "\u897f\u4e8c\u65d7", "location": {"lat": 40.058918, "lng": 116.312621}, "address": "\u5730\u94c113\u53f7\u7ebf;\u5730\u94c1\u660c\u5e73\u7ebf", "province": "\u5317\u4eac\u5e02", "city": "\u5317\u4eac\u5e02", "area": "\u6d77\u6dc0\u533a", "detail": 1, "uid": "4e2e5e35444596fbf4eafc53"}, {"name": "\u4e94\u9053\u53e3", "location": {"lat": 39.998568, "lng": 116.344434}, "address": "\u5730\u94c113\u53f7\u7ebf", "province": "\u5317\u4eac\u5e02", "city": "\u5317\u4eac\u5e02", "area": "\u6d77\u6dc0\u533a", "detail": 1, "uid": "fc272e4a8d1788696040a9de"}, {"name": "\u4e1c\u98ce\u5317\u6865", "location": {"lat": 39.9645, "lng": 116.492579}, "address": "\u5730\u94c114\u53f7\u7ebf\u4e1c\u6bb5", "province": "\u5317\u4eac\u5e02", "city": "\u5317\u4eac\u5e02", "area": "\u671d\u9633\u533a", "detail": 1, "uid": "f30e4c7fdee0b517bca8229b"}, {"name": "\u4e30\u53f0\u79d1\u6280\u56ed", "location": {"lat": 39.831449, "lng": 116.303639}, "address": "\u5730\u94c19\u53f7\u7ebf", "province": "\u5317\u4eac\u5e02", "city": "\u5317\u4eac\u5e02", "area": "\u4e30\u53f0\u533a", "detail": 1, "uid": "79df95223da7fcbc86420eac"}, {"name": "\u6d77\u6dc0\u4e94\u8def\u5c45", "location": {"lat": 39.9386, "lng": 116.282736}, "address": "\u5730\u94c16\u53f7\u7ebf", "province": "\u5317\u4eac\u5e02", "city": "\u5317\u4eac\u5e02", "area": "\u6d77\u6dc0\u533a", "detail": 1, "uid": "8815b6b9de1f0ace70210bcc"}, {"name": "\u5de9\u534e\u57ce", "location": {"lat": 40.137318, "lng": 116.300434}, "address": "\u5730\u94c1\u660c\u5e73\u7ebf", "province": "\u5317\u4eac\u5e02", "city": "\u5317\u4eac\u5e02", "area": "\u660c\u5e73\u533a", "detail": 1, "uid": "8cb129b57d31784b4d6d466c"}, {"name": "\u9676\u7136\u4ead", "location": {"lat": 39.884625, "lng": 116.380902}, "address": "\u5730\u94c14\u53f7\u7ebf\u5927\u5174\u7ebf", "province": "\u5317\u4eac\u5e02", "city": "\u5317\u4eac\u5e02", "area": "\u897f\u57ce\u533a", "detail": 1, "uid": "c6d32113e1d36cf6ef74f828"}, {"name": "\u82f9\u679c\u56ed", "location": {"lat": 39.932436, "lng": 116.184436}, "address": "\u5730\u94c11\u53f7\u7ebf", "province": "\u5317\u4eac\u5e02", "city": "\u5317\u4eac\u5e02", "area": "\u77f3\u666f\u5c71\u533a", "detail": 1, "uid": "ff9fdb36fe0574244c5547d9"}, {"name": "\u9a6c\u8fde\u6d3c", "location": {"lat": 40.038769, "lng": 116.279261}, "address": "\u5730\u94c116\u53f7\u7ebf", "province": "\u5317\u4eac\u5e02", "city": "\u5317\u4eac\u5e02", "area": "\u6d77\u6dc0\u533a", "detail": 1, "uid": "fcf4ac0162375d4683a00c0f"}, {"name": "\u5929\u901a\u82d1\u5317", "location": {"lat": 40.089597, "lng": 116.419385}, "address": "\u5730\u94c15\u53f7\u7ebf", "province": "\u5317\u4eac\u5e02", "city": "\u5317\u4eac\u5e02", "area": "\u660c\u5e73\u533a", "detail": 1, "uid": "2269b60891be585133870ade"}, {"name": "\u897f\u571f\u57ce", "location": {"lat": 39.982026, "lng": 116.360484}, "address": "\u5730\u94c110\u53f7\u7ebf", "province": "\u5317\u4eac\u5e02", "city": "\u5317\u4eac\u5e02", "area": "\u6d77\u6dc0\u533a", "detail": 1, "uid": "2d180dc935fbae831c5800de"}, {"name": "\u7126\u5316\u5382", "location": {"lat": 39.861686, "lng": 116.543631}, "address": "\u5730\u94c17\u53f7\u7ebf", "province": "\u5317\u4eac\u5e02", "city": "\u5317\u4eac\u5e02", "area": "\u671d\u9633\u533a", "detail": 1, "uid": "3b3c158799bdad28eaf8533b"}, {"name": "\u8fbe\u5b98\u8425", "location": {"lat": 39.895671, "lng": 116.342069}, "address": "\u5730\u94c17\u53f7\u7ebf", "province": "\u5317\u4eac\u5e02", "city": "\u5317\u4eac\u5e02", "area": "\u897f\u57ce\u533a", "detail": 1, "uid": "f959332641cf40842b201aac"},{"name": "\u8363\u4eac\u4e1c\u8857", "location": {"lat": 39.799616, "lng": 116.519744}, "address": "\u5730\u94c1\u4ea6\u5e84\u7ebf", "province": "\u5317\u4eac\u5e02", "city": "\u5317\u4eac\u5e02", "area": "\u5927\u5174\u533a", "detail": 1, "uid": "4caa69bf5073da5cea56fa6d"}, {"name": "\u56fd\u5c55", "location": {"lat": 40.075932, "lng": 116.561721}, "address": "\u5730\u94c115\u53f7\u7ebf", "province": "\u5317\u4eac\u5e02", "city": "\u5317\u4eac\u5e02", "area": "\u987a\u4e49\u533a", "detail": 1, "uid": "c78718e0792cf934912ca36d"}, {"name": "\u961c\u6210\u95e8", "location": {"lat": 39.929522, "lng": 116.362817}, "address": "\u5730\u94c12\u53f7\u7ebf", "province": "\u5317\u4eac\u5e02", "city": "\u5317\u4eac\u5e02", "area": "\u897f\u57ce\u533a", "detail": 1, "uid": "5142153d77c431e11911d5de"}, {"name": "\u767d\u5806\u5b50", "location": {"lat": 39.929707, "lng": 116.332359}, "address": "\u5730\u94c19\u53f7\u7ebf", "province": "\u5317\u4eac\u5e02", "city": "\u5317\u4eac\u5e02", "area": "\u6d77\u6dc0\u533a", "detail": 1, "uid": "a6bd5df5384596412eb908cc"}, {"name": "\u516d\u91cc\u6865", "location": {"lat": 39.886428, "lng": 116.30961}, "address": "\u5730\u94c110\u53f7\u7ebf;\u5730\u94c19\u53f7\u7ebf", "province": "\u5317\u4eac\u5e02", "city": "\u5317\u4eac\u5e02", "area": "\u4e30\u53f0\u533a", "detail": 1, "uid": "8e949ab99cf7cc6a1d1d11ac"}, {"name": "\u548c\u5e73\u897f\u6865", "location": {"lat": 39.974502, "lng": 116.424463}, "address": "\u5730\u94c15\u53f7\u7ebf", "province": "\u5317\u4eac\u5e02", "city": "\u5317\u4eac\u5e02", "area": "\u671d\u9633\u533a", "detail": 1, "uid": "5402ecb99cf7cc6a1c1d11de"}, {"name": "\u67f3\u82b3", "location": {"lat": 39.964106, "lng": 116.439265}, "address": "\u5730\u94c113\u53f7\u7ebf", "province": "\u5317\u4eac\u5e02", "city": "\u5317\u4eac\u5e02", "area": "\u671d\u9633\u533a", "detail": 1, "uid": "2bcbdf2b7f7aa865f7c59cde"}, {"name": "\u6e05\u534e\u4e1c\u8def\u897f\u53e3", "location": {"lat": 40.0063, "lng": 116.345527}, "address": "\u5730\u94c115\u53f7\u7ebf", "province": "\u5317\u4eac\u5e02", "city": "\u5317\u4eac\u5e02", "area": "\u6d77\u6dc0\u533a", "detail": 1, "uid": "dbae86e3bffebcf5badf8f94"}, {"name": "\u751f\u547d\u79d1\u5b66\u56ed", "location": {"lat": 40.100975, "lng": 116.30055}, "address": "\u5730\u94c1\u660c\u5e73\u7ebf", "province": "\u5317\u4eac\u5e02", "city": "\u5317\u4eac\u5e02", "area": "\u660c\u5e73\u533a", "detail": 1, "uid": "0a4b7d02f26a751cbca2406c"}, {"name": "\u6c38\u6cf0\u5e84", "location": {"lat": 40.043692, "lng": 116.361159}, "address": "\u5730\u94c18\u53f7\u7ebf", "province": "\u5317\u4eac\u5e02", "city": "\u5317\u4eac\u5e02", "area": "\u6d77\u6dc0\u533a", "detail": 1, "uid": "2535aaf0fb50b53e210220ac"}, {"name": "\u524d\u95e8", "location": {"lat": 39.906534, "lng": 116.404276}, "address": "\u5730\u94c12\u53f7\u7ebf", "province": "\u5317\u4eac\u5e02", "city": "\u5317\u4eac\u5e02", "area": "\u4e1c\u57ce\u533a", "detail": 1, "uid": "8d0658549b0c105878dbd2de"}, {"name": "\u8363\u660c\u4e1c\u8857", "location": {"lat": 39.789194, "lng": 116.528038}, "address": "\u5730\u94c1\u4ea6\u5e84\u7ebf", "province": "\u5317\u4eac\u5e02", "city": "\u5317\u4eac\u5e02", "area": "\u5927\u5174\u533a", "detail": 1, "uid": "296d62d4eab8d63de315f96d"}, {"name": "\u5e7f\u5b89\u95e8\u5185", "location": {"lat": 39.89543, "lng": 116.364626}, "address": "\u5730\u94c17\u53f7\u7ebf", "province": "\u5317\u4eac\u5e02", "city": "\u5317\u4eac\u5e02", "area": "\u897f\u57ce\u533a", "detail": 1, "uid": "654839149f81a6c682288a1e"}, {"name": "\u961c\u901a", "location": {"lat": 39.997887, "lng": 116.477642}, "address": "\u5730\u94c114\u53f7\u7ebf\u4e1c\u6bb5", "province": "\u5317\u4eac\u5e02", "city": "\u5317\u4eac\u5e02", "area": "\u671d\u9633\u533a", "detail": 1, "uid": "530e0e765ad687e9f42310e9"}, {"name": "\u6c38\u4e30\u5357", "location": {"lat": 40.071669, "lng": 116.254611}, "address": "\u5730\u94c116\u53f7\u7ebf", "province": "\u5317\u4eac\u5e02", "city": "\u5317\u4eac\u5e02", "area": "\u6d77\u6dc0\u533a", "detail": 1, "uid": "8c71966addaa3ebbc72ba172"}, {"name": "\u8921\u88e2\u5761", "location": {"lat": 39.929826, "lng": 116.570223}, "address": "\u5730\u94c16\u53f7\u7ebf", "province": "\u5317\u4eac\u5e02", "city": "\u5317\u4eac\u5e02", "area": "\u671d\u9633\u533a", "detail": 1, "uid": "800967a721f094a72de67bcc"}, {"name": "\u671b\u4eac", "location": {"lat": 40.004532, "lng": 116.475304}, "address": "\u5730\u94c114\u53f7\u7ebf\u4e1c\u6bb5;\u5730\u94c115\u53f7\u7ebf", "province": "\u5317\u4eac\u5e02", "city": "\u5317\u4eac\u5e02", "area": "\u671d\u9633\u533a", "detail": 1, "uid": "7e51cbc51502eabd293a9f6d"}, {"name": "\u6b21\u6e20", "location": {"lat": 39.809191, "lng": 116.597911}, "address": "\u5730\u94c1\u4ea6\u5e84\u7ebf", "province": "\u5317\u4eac\u5e02", "city": "\u5317\u4eac\u5e02", "area": "\u901a\u5dde\u533a", "detail": 1, "uid": "bd42d5e54e2acca33813fd6d"}, {"name": "\u56e2\u7ed3\u6e56", "location": {"lat": 39.939382, "lng": 116.468337}, "address": "\u5730\u94c110\u53f7\u7ebf", "province": "\u5317\u4eac\u5e02", "city": "\u5317\u4eac\u5e02", "area": "\u671d\u9633\u533a", "detail": 1, "uid": "2435c41e54ffab581cf74dde"}, {"name": "\u4e1c\u5927\u6865", "location": {"lat": 39.928625, "lng": 116.458252}, "address": "\u5730\u94c16\u53f7\u7ebf", "province": "\u5317\u4eac\u5e02", "city": "\u5317\u4eac\u5e02", "area": "\u671d\u9633\u533a", "detail": 1, "uid": "6e10791195be8a4e2db17ecc"},{"name": "\u5e73\u897f\u5e9c", "location": {"lat": 40.095792, "lng": 116.357247}, "address": "\u5730\u94c18\u53f7\u7ebf", "province": "\u5317\u4eac\u5e02", "city": "\u5317\u4eac\u5e02", "area": "\u660c\u5e73\u533a", "detail": 1, "uid": "aa8f6eb3baff841b095cb308"}, {"name": "\u53cc\u6865", "location": {"lat": 39.915885, "lng": 116.583332}, "address": "\u5730\u94c1\u516b\u901a\u7ebf", "province": "\u5317\u4eac\u5e02", "city": "\u5317\u4eac\u5e02", "area": "\u671d\u9633\u533a", "detail": 1, "uid": "0f84a0172f25114bd52ce2de"}, {"name": "\u5927\u949f\u5bfa", "location": {"lat": 39.972034, "lng": 116.35182}, "address": "\u5730\u94c113\u53f7\u7ebf", "province": "\u5317\u4eac\u5e02", "city": "\u5317\u4eac\u5e02", "area": "\u6d77\u6dc0\u533a", "detail": 1, "uid": "0977db56470b0e033210afde"}, {"name": "\u897f\u76f4\u95e8", "location": {"lat": 39.946436, "lng": 116.361442}, "address": "\u5730\u94c113\u53f7\u7ebf;\u5730\u94c12\u53f7\u7ebf;\u5730\u94c14\u53f7\u7ebf\u5927\u5174\u7ebf", "province": "\u5317\u4eac\u5e02", "city": "\u5317\u4eac\u5e02", "area": "\u897f\u57ce\u533a", "detail": 1, "uid": "fa69125c7d51c145374aaede"}, {"name": "\u7261\u4e39\u56ed", "location": {"lat": 39.982371, "lng": 116.376446}, "address": "\u5730\u94c110\u53f7\u7ebf", "province": "\u5317\u4eac\u5e02", "city": "\u5317\u4eac\u5e02", "area": "\u6d77\u6dc0\u533a", "detail": 1, "uid": "b8e293fc28cd251102ec01de"}, {"name": "T2\u822a\u7ad9\u697c", "location": {"lat": 40.085493, "lng": 116.599563}, "address": "\u673a\u573a\u7ebf", "province": "\u5317\u4eac\u5e02", "city": "\u5317\u4eac\u5e02", "area": "\u671d\u9633\u533a", "detail": 1, "uid": "92ef11a8a616e9644154d7df"}, {"name": "\u901a\u5dde\u5317\u5173", "location": {"lat": 39.924687, "lng": 116.668053}, "address": "\u5730\u94c16\u53f7\u7ebf", "province": "\u5317\u4eac\u5e02", "city": "\u5317\u4eac\u5e02", "area": "\u901a\u5dde\u533a", "detail": 1, "uid": "b883923f536e816072210bcd"}, {"name": "\u9ad8\u7891\u5e97", "location": {"lat": 39.915798, "lng": 116.538}, "address": "\u5730\u94c1\u516b\u901a\u7ebf", "province": "\u5317\u4eac\u5e02", "city": "\u5317\u4eac\u5e02", "area": "\u671d\u9633\u533a", "detail": 1, "uid": "a139b531fda8805e9022e0de"}, {"name": "\u6797\u8403\u6865", "location": {"lat": 40.027995, "lng": 116.378905}, "address": "\u5730\u94c18\u53f7\u7ebf", "province": "\u5317\u4eac\u5e02", "city": "\u5317\u4eac\u5e02", "area": "\u671d\u9633\u533a", "detail": 1, "uid": "aa517f887af77d1e8d7727ac"}, {"name": "\u82b1\u68a8\u574e", "location": {"lat": 40.090312, "lng": 116.564223}, "address": "\u5730\u94c115\u53f7\u7ebf", "province": "\u5317\u4eac\u5e02", "city": "\u5317\u4eac\u5e02", "area": "\u987a\u4e49\u533a", "detail": 1, "uid": "d39910fa9be7ff62c07da26d"}, {"name": "\u5317\u6c99\u6ee9", "location": {"lat": 40.007538, "lng": 116.375561}, "address": "\u5730\u94c115\u53f7\u7ebf", "province": "\u5317\u4eac\u5e02", "city": "\u5317\u4eac\u5e02", "area": "\u6d77\u6dc0\u533a", "detail": 1, "uid": "b9ef9ad5c949ee9988b988cf"}, {"name": "\u6c38\u5b9a\u95e8\u5916", "location": {"lat": 39.872792, "lng": 116.405983}, "address": "\u5730\u94c114\u53f7\u7ebf\u4e1c\u6bb5;\u5730\u94c18\u53f7\u7ebf\u5357\u6bb5", "province": "\u5317\u4eac\u5e02", "city": "\u5317\u4eac\u5e02", "area": "\u4e1c\u57ce\u533a", "detail": 1, "uid": "23675194c3166c00246e98f3"}, {"name": "\u56fd\u8d38", "location": {"lat": 39.914435, "lng": 116.467523}, "address": "\u5730\u94c110\u53f7\u7ebf;\u5730\u94c11\u53f7\u7ebf", "province": "\u5317\u4eac\u5e02", "city": "\u5317\u4eac\u5e02", "area": "\u671d\u9633\u533a", "detail": 1, "uid": "c688801de17d0472a21de9b4"}, {"name": "\u4e2d\u94c1\u4e09\u5c40\u96c6\u56e2\u5317\u4eac\u5730\u94c16\u53f7\u7ebf\u897f\u5ef602\u6807\u7530\u6751\u8f66\u7ad9\u5de5\u533a", "location": {"lat": 39.935851, "lng": 116.260468}, "address": "\u65f1\u6cb3\u8def\u4e0e\u7530\u6751\u8def\u4ea4\u53c9\u53e3\u4e1c100\u7c73", "province": "\u5317\u4eac\u5e02", "city": "\u5317\u4eac\u5e02", "area": "\u6d77\u6dc0\u533a", "street_id": "d57f49ffe2510a86badf8f9d", "detail": 1, "uid": "d57f49ffe2510a86badf8f9d"}, {"name": "\u90dd\u5bb6\u5e9c", "location": {"lat": 39.909286, "lng": 116.724215}, "address": "\u5730\u94c16\u53f7\u7ebf", "province": "\u5317\u4eac\u5e02", "city": "\u5317\u4eac\u5e02", "area": "\u901a\u5dde\u533a", "detail": 1, "uid": "3b2b7e68bf1e2e772d4733f5"}, {"name": "\u6f5e\u57ce", "location": {"lat": 39.90889, "lng": 116.754799}, "address": "\u5730\u94c16\u53f7\u7ebf", "province": "\u5317\u4eac\u5e02", "city": "\u5317\u4eac\u5e02", "area": "\u901a\u5dde\u533a", "detail": 1, "uid": "5e713cd3b1594a282102620c"}, {"name": "\u4e1c\u590f\u56ed", "location": {"lat": 39.909493, "lng": 116.740896}, "address": "\u5730\u94c16\u53f7\u7ebf", "province": "\u5317\u4eac\u5e02", "city": "\u5317\u4eac\u5e02", "area": "\u901a\u5dde\u533a", "detail": 1, "uid": "477dab883f6f190fb45f1e30"}, {"name": "\u4ff8\u4f2f", "location": {"lat": 40.138304, "lng": 116.69145}, "address": "\u5730\u94c115\u53f7\u7ebf", "province": "\u5317\u4eac\u5e02", "city": "\u5317\u4eac\u5e02", "area": "\u987a\u4e49\u533a", "detail": 1, "uid": "6da74047d2c73bb682a12eac"}, {"name": "\u987a\u4e49", "location": {"lat": 40.136138, "lng": 116.663478}, "address": "\u5730\u94c115\u53f7\u7ebf", "province": "\u5317\u4eac\u5e02", "city": "\u5317\u4eac\u5e02", "area": "\u987a\u4e49\u533a", "detail": 1, "uid": "175f291a9040548903ff2dac"}, {"name": "\u5357\u6cd5\u4fe1", "location": {"lat": 40.134458, "lng": 116.616411}, "address": "\u5730\u94c115\u53f7\u7ebf", "province": "\u5317\u4eac\u5e02", "city": "\u5317\u4eac\u5e02", "area": "\u987a\u4e49\u533a", "detail": 1, "uid": "dba4ccd282e57f532e4733ac"},{"name": "\u5929\u901a\u82d1", "location": {"lat": 40.081478, "lng": 116.419233}, "address": "\u5730\u94c15\u53f7\u7ebf", "province": "\u5317\u4eac\u5e02", "city": "\u5317\u4eac\u5e02", "area": "\u660c\u5e73\u533a", "detail": 1, "uid": "61de9e42100f17f0611809de"}, {"name": "\u56de\u9f99\u89c2\u4e1c\u5927\u8857", "location": {"lat": 40.086965, "lng": 116.369753}, "address": "\u5730\u94c18\u53f7\u7ebf", "province": "\u5317\u4eac\u5e02", "city": "\u5317\u4eac\u5e02", "area": "\u660c\u5e73\u533a", "detail": 1, "uid": "19bff3e301afe8b63b221cac"}, {"name": "\u5357\u90b5", "location": {"lat": 40.21343, "lng": 116.293505}, "address": "\u5730\u94c1\u660c\u5e73\u7ebf", "province": "\u5317\u4eac\u5e02", "city": "\u5317\u4eac\u5e02", "area": "\u660c\u5e73\u533a", "detail": 1, "uid": "c35417fc0e4b738515b54b6c"}, {"name": "\u5317\u90b5\u6d3c", "location": {"lat": 40.228114, "lng": 116.287975}, "address": "\u5730\u94c1\u660c\u5e73\u7ebf", "province": "\u5317\u4eac\u5e02", "city": "\u5317\u4eac\u5e02", "area": "\u660c\u5e73\u533a", "detail": 1, "uid": "46aae898661bc721f4b91612"}, {"name": "\u6c99\u6cb3\u9ad8\u6559\u56ed", "location": {"lat": 40.171012, "lng": 116.286757}, "address": "\u5730\u94c1\u660c\u5e73\u7ebf", "province": "\u5317\u4eac\u5e02", "city": "\u5317\u4eac\u5e02", "area": "\u660c\u5e73\u533a", "detail": 1, "uid": "ef818d4cf5cb2cfcc236446c"}, {"name": "\u660c\u5e73\u4e1c\u5173", "location": {"lat": 40.227946, "lng": 116.268533}, "address": "\u5730\u94c1\u660c\u5e73\u7ebf", "province": "\u5317\u4eac\u5e02", "city": "\u5317\u4eac\u5e02", "area": "\u660c\u5e73\u533a", "detail": 1, "uid": "b01487b504aa439c4c3a59fb"}, {"name": "\u660c\u5e73\u897f\u5c71\u53e3", "location": {"lat": 40.250294, "lng": 116.202226}, "address": "\u5730\u94c1\u660c\u5e73\u7ebf", "province": "\u5317\u4eac\u5e02", "city": "\u5317\u4eac\u5e02", "area": "\u660c\u5e73\u533a", "detail": 1, "uid": "3e7ade317445275e83a00c88"}, {"name": "\u5341\u4e09\u9675\u666f\u533a", "location": {"lat": 40.245742, "lng": 116.214346}, "address": "\u5730\u94c1\u660c\u5e73\u7ebf", "province": "\u5317\u4eac\u5e02", "city": "\u5317\u4eac\u5e02", "area": "\u660c\u5e73\u533a", "detail": 1, "uid": "fb5bb184f72e41b48bdb7397"}, {"name": "\u6c99\u6cb3", "location": {"lat": 40.154693, "lng": 116.295058}, "address": "\u5730\u94c1\u660c\u5e73\u7ebf", "province": "\u5317\u4eac\u5e02", "city": "\u5317\u4eac\u5e02", "area": "\u660c\u5e73\u533a", "detail": 1, "uid": "743176ccaab2fb7f4102456c"}, {"name": "\u80b2\u77e5\u8def", "location": {"lat": 40.09371, "lng": 116.333898}, "address": "\u5730\u94c18\u53f7\u7ebf", "province": "\u5317\u4eac\u5e02", "city": "\u5317\u4eac\u5e02", "area": "\u660c\u5e73\u533a", "detail": 1, "uid": "32c90b23cc4790a87369d332"}, {"name": "\u6731\u8f9b\u5e84", "location": {"lat": 40.110334, "lng": 116.32013}, "address": "\u5730\u94c18\u53f7\u7ebf;\u5730\u94c1\u660c\u5e73\u7ebf", "province": "\u5317\u4eac\u5e02", "city": "\u5317\u4eac\u5e02", "area": "\u660c\u5e73\u533a", "detail": 1, "uid": "f78fa7c0bbbc9d6303ec0196"}, {"name": "\u5317\u8fd0\u6cb3\u4e1c", "location": {"lat": 39.909261, "lng": 116.713741}, "address": "\u5730\u94c16\u53f7\u7ebf", "province": "\u5317\u4eac\u5e02", "city": "\u5317\u4eac\u5e02", "area": "\u901a\u5dde\u533a", "detail": 1, "uid": "fc3d0563cbe63f5cab059d3b"}, {"name": "\u5317\u8fd0\u6cb3\u897f", "location": {"lat": 39.90893, "lng": 116.694432}, "address": "\u5730\u94c16\u53f7\u7ebf", "province": "\u5317\u4eac\u5e02", "city": "\u5317\u4eac\u5e02", "area": "\u901a\u5dde\u533a", "detail": 1, "uid": "8bbde5f001a2885a4351c001"}, {"name": "\u901a\u5dde\u5317\u82d1", "location": {"lat": 39.910064, "lng": 116.64361}, "address": "\u5730\u94c1\u516b\u901a\u7ebf", "province": "\u5317\u4eac\u5e02", "city": "\u5317\u4eac\u5e02", "area": "\u901a\u5dde\u533a", "detail": 1, "uid": "7829cc2c6c3b0e5e09ccddde"}, {"name": "\u7269\u8d44\u5b66\u9662\u8def", "location": {"lat": 39.933087, "lng": 116.645543}, "address": "\u5730\u94c16\u53f7\u7ebf", "province": "\u5317\u4eac\u5e02", "city": "\u5317\u4eac\u5e02", "area": "\u901a\u5dde\u533a", "detail": 1, "uid": "48fc71ced175d435e9f853ff"}, {"name": "\u8349\u623f", "location": {"lat": 39.930673, "lng": 116.622546}, "address": "\u5730\u94c16\u53f7\u7ebf", "province": "\u5317\u4eac\u5e02", "city": "\u5317\u4eac\u5e02", "area": "\u671d\u9633\u533a", "detail": 1, "uid": "97f3b5e6fbe5fe527fc876cc"}, {"name": "\u5e38\u8425", "location": {"lat": 39.93151, "lng": 116.605447}, "address": "\u5730\u94c16\u53f7\u7ebf", "province": "\u5317\u4eac\u5e02", "city": "\u5317\u4eac\u5e02", "area": "\u671d\u9633\u533a", "detail": 1, "uid": "a7ea35ee92e17dabc71b75cc"}, {"name": "\u516b\u91cc\u6865", "location": {"lat": 39.912218, "lng": 116.625141}, "address": "\u5730\u94c1\u516b\u901a\u7ebf", "province": "\u5317\u4eac\u5e02", "city": "\u5317\u4eac\u5e02", "area": "\u671d\u9633\u533a", "detail": 1, "uid": "df0931026a2bea753717dcde"}, {"name": "\u7ba1\u5e84", "location": {"lat": 39.914907, "lng": 116.605782}, "address": "\u5730\u94c1\u516b\u901a\u7ebf", "province": "\u5317\u4eac\u5e02", "city": "\u5317\u4eac\u5e02", "area": "\u671d\u9633\u533a", "detail": 1, "uid": "f73c89229705ec65d33ce3de"}, {"name": "\u9ec4\u6e20", "location": {"lat": 39.929937, "lng": 116.584917}, "address": "\u5730\u94c16\u53f7\u7ebf", "province": "\u5317\u4eac\u5e02", "city": "\u5317\u4eac\u5e02", "area": "\u671d\u9633\u533a", "detail": 1, "uid": "c7ba06f712e914af44e274cc"},{"name": "\u4f20\u5a92\u5927\u5b66", "location": {"lat": 39.915197, "lng": 116.561375}, "address": "\u5730\u94c1\u516b\u901a\u7ebf", "province": "\u5317\u4eac\u5e02", "city": "\u5317\u4eac\u5e02", "area": "\u671d\u9633\u533a", "detail": 1, "uid": "e01a5baf0610a96b2802e1de"}, {"name": "\u9a6c\u6cc9\u8425", "location": {"lat": 40.039847, "lng": 116.509638}, "address": "\u5730\u94c115\u53f7\u7ebf", "province": "\u5317\u4eac\u5e02", "city": "\u5317\u4eac\u5e02", "area": "\u671d\u9633\u533a", "detail": 1, "uid": "2b56fc7d2e2bce8caa059d6d"}, {"name": "\u5b59\u6cb3", "location": {"lat": 40.051264, "lng": 116.54104}, "address": "\u5730\u94c115\u53f7\u7ebf", "province": "\u5317\u4eac\u5e02", "city": "\u5317\u4eac\u5e02", "area": "\u671d\u9633\u533a", "detail": 1, "uid": "c89dfa2b7f7aa865f7c59c6d"}, {"name": "\u5d14\u5404\u5e84", "location": {"lat": 40.028437, "lng": 116.499145}, "address": "\u5730\u94c115\u53f7\u7ebf", "province": "\u5317\u4eac\u5e02", "city": "\u5317\u4eac\u5e02", "area": "\u671d\u9633\u533a", "detail": 1, "uid": "2e00ad2c48c2934cd3f49e6d"}, {"name": "\u5584\u5404\u5e84", "location": {"lat": 40.03309, "lng": 116.484762}, "address": "\u5730\u94c114\u53f7\u7ebf\u4e1c\u6bb5", "province": "\u5317\u4eac\u5e02", "city": "\u5317\u4eac\u5e02", "area": "\u671d\u9633\u533a", "detail": 1, "uid": "debbab5fba8abe05a21de96a"}, {"name": "\u6765\u5e7f\u8425", "location": {"lat": 40.026145, "lng": 116.473489}, "address": "\u5730\u94c114\u53f7\u7ebf\u4e1c\u6bb5", "province": "\u5317\u4eac\u5e02", "city": "\u5317\u4eac\u5e02", "area": "\u671d\u9633\u533a", "detail": 1, "uid": "fb00b00265ddcc4f8733043f"}, {"name": "\u671b\u4eac\u897f", "location": {"lat": 40.001109, "lng": 116.455596}, "address": "\u5730\u94c113\u53f7\u7ebf;\u5730\u94c115\u53f7\u7ebf", "province": "\u5317\u4eac\u5e02", "city": "\u5317\u4eac\u5e02", "area": "\u671d\u9633\u533a", "detail": 1, "uid": "e3cf20e493fd1da9c62ba1de"}, {"name": "\u4e1c\u6e56\u6e20", "location": {"lat": 40.016228, "lng": 116.474032}, "address": "\u5730\u94c114\u53f7\u7ebf\u4e1c\u6bb5", "province": "\u5317\u4eac\u5e02", "city": "\u5317\u4eac\u5e02", "area": "\u671d\u9633\u533a", "detail": 1, "uid": "a2ec780036eaf0294c6d467c"}, {"name": "\u5929\u901a\u82d1\u5357", "location": {"lat": 40.072752, "lng": 116.419113}, "address": "\u5730\u94c15\u53f7\u7ebf", "province": "\u5317\u4eac\u5e02", "city": "\u5317\u4eac\u5e02", "area": "\u660c\u5e73\u533a", "detail": 1, "uid": "218bdcf5384596412eb908de"}, {"name": "\u7acb\u6c34\u6865", "location": {"lat": 40.059244, "lng": 116.418274}, "address": "\u5730\u94c113\u53f7\u7ebf;\u5730\u94c15\u53f7\u7ebf", "province": "\u5317\u4eac\u5e02", "city": "\u5317\u4eac\u5e02", "area": "\u671d\u9633\u533a", "detail": 1, "uid": "58099ba07af2be0baf080fde"}, {"name": "\u7acb\u6c34\u6865\u5357", "location": {"lat": 40.048143, "lng": 116.420973}, "address": "\u5730\u94c15\u53f7\u7ebf", "province": "\u5317\u4eac\u5e02", "city": "\u5317\u4eac\u5e02", "area": "\u671d\u9633\u533a", "detail": 1, "uid": "9349e3223da7fcbc87420ede"}, {"name": "\u5317\u82d1", "location": {"lat": 40.048872, "lng": 116.441315}, "address": "\u5730\u94c113\u53f7\u7ebf", "province": "\u5317\u4eac\u5e02", "city": "\u5317\u4eac\u5e02", "area": "\u671d\u9633\u533a", "detail": 1, "uid": "c52df6e486e315b324e0a0de"}, {"name": "\u5927\u5c6f\u8def\u4e1c", "location": {"lat": 40.009611, "lng": 116.424567}, "address": "\u5730\u94c115\u53f7\u7ebf;\u5730\u94c15\u53f7\u7ebf", "province": "\u5317\u4eac\u5e02", "city": "\u5317\u4eac\u5e02", "area": "\u671d\u9633\u533a", "detail": 1, "uid": "6a08051d8d65c36b82a00cde"}, {"name": "\u5b89\u7acb\u8def", "location": {"lat": 40.008946, "lng": 116.414285}, "address": "\u5730\u94c115\u53f7\u7ebf", "province": "\u5317\u4eac\u5e02", "city": "\u5317\u4eac\u5e02", "area": "\u671d\u9633\u533a", "detail": 1, "uid": "d4bc4b9718a82a9a704b87c5"}, {"name": "\u5173\u5e84", "location": {"lat": 40.007136, "lng": 116.437889}, "address": "\u5730\u94c115\u53f7\u7ebf", "province": "\u5317\u4eac\u5e02", "city": "\u5317\u4eac\u5e02", "area": "\u671d\u9633\u533a", "detail": 1, "uid": "5e5458247083bc730d3ddad4"}, {"name": "\u68ee\u6797\u516c\u56ed\u5357\u95e8", "location": {"lat": 40.016211, "lng": 116.399036}, "address": "\u5730\u94c18\u53f7\u7ebf", "province": "\u5317\u4eac\u5e02", "city": "\u5317\u4eac\u5e02", "area": "\u671d\u9633\u533a", "detail": 1, "uid": "9c0ff1ecaf8ffcb9455726ac"}, {"name": "\u67a3\u8425", "location": {"lat": 39.950188, "lng": 116.48155}, "address": "\u5730\u94c114\u53f7\u7ebf\u4e1c\u6bb5", "province": "\u5317\u4eac\u5e02", "city": "\u5317\u4eac\u5e02", "area": "\u671d\u9633\u533a", "detail": 1, "uid": "2effad64d800a58c9d9d6890"}, {"name": "\u519c\u4e1a\u5c55\u89c8\u9986", "location": {"lat": 39.946988, "lng": 116.468772}, "address": "\u5730\u94c110\u53f7\u7ebf", "province": "\u5317\u4eac\u5e02", "city": "\u5317\u4eac\u5e02", "area": "\u671d\u9633\u533a", "detail": 1, "uid": "442bdd1e6219d2b192114cde"}, {"name": "\u5341\u91cc\u5821", "location": {"lat": 39.929238, "lng": 116.508479}, "address": "\u5730\u94c16\u53f7\u7ebf", "province": "\u5317\u4eac\u5e02", "city": "\u5317\u4eac\u5e02", "area": "\u671d\u9633\u533a", "detail": 1, "uid": "861ab5b10813c6ee9ef779cc"}, {"name": "\u56db\u60e0\u4e1c", "location": {"lat": 39.914943, "lng": 116.522347}, "address": "\u5730\u94c11\u53f7\u7ebf;\u5730\u94c1\u516b\u901a\u7ebf", "province": "\u5317\u4eac\u5e02", "city": "\u5317\u4eac\u5e02", "area": "\u671d\u9633\u533a", "detail": 1, "uid": "382fe242b45bfb1ff80cadde"},{"name": "\u56db\u60e0", "location": {"lat": 39.91486, "lng": 116.501945}, "address": "\u5730\u94c11\u53f7\u7ebf;\u5730\u94c1\u516b\u901a\u7ebf", "province": "\u5317\u4eac\u5e02", "city": "\u5317\u4eac\u5e02", "area": "\u671d\u9633\u533a", "detail": 1, "uid": "0024210444453215c256acde"}, {"name": "\u91d1\u53f0\u5915\u7167", "location": {"lat": 39.922961, "lng": 116.468282}, "address": "\u5730\u94c110\u53f7\u7ebf", "province": "\u5317\u4eac\u5e02", "city": "\u5317\u4eac\u5e02", "area": "\u671d\u9633\u533a", "detail": 1, "uid": "09d38b11a3f0eefe00294fde"}, {"name": "\u547c\u5bb6\u697c", "location": {"lat": 39.928981, "lng": 116.468237}, "address": "\u5730\u94c110\u53f7\u7ebf;\u5730\u94c16\u53f7\u7ebf", "province": "\u5317\u4eac\u5e02", "city": "\u5317\u4eac\u5e02", "area": "\u671d\u9633\u533a", "detail": 1, "uid": "3c35f2f82d1625bed7b74ede"}, {"name": "\u6c38\u5b89\u91cc", "location": {"lat": 39.914223, "lng": 116.457089}, "address": "\u5730\u94c11\u53f7\u7ebf", "province": "\u5317\u4eac\u5e02", "city": "\u5317\u4eac\u5e02", "area": "\u671d\u9633\u533a", "detail": 1, "uid": "76056ee5681fc6473804b1de"}, {"name": "\u91d1\u53f0\u8def", "location": {"lat": 39.929069, "lng": 116.484892}, "address": "\u5730\u94c114\u53f7\u7ebf\u4e1c\u6bb5;\u5730\u94c16\u53f7\u7ebf", "province": "\u5317\u4eac\u5e02", "city": "\u5317\u4eac\u5e02", "area": "\u671d\u9633\u533a", "detail": 1, "uid": "63a590e45876565b871541ef"}, {"name": "\u671d\u9633\u516c\u56ed", "location": {"lat": 39.939443, "lng": 116.484946}, "address": "\u5730\u94c114\u53f7\u7ebf\u4e1c\u6bb5", "province": "\u5317\u4eac\u5e02", "city": "\u5317\u4eac\u5e02", "area": "\u671d\u9633\u533a", "detail": 1, "uid": "3f60bf93763b9ef14054d744"}, {"name": "\u592a\u9633\u5bab", "location": {"lat": 39.978367, "lng": 116.454059}, "address": "\u5730\u94c110\u53f7\u7ebf", "province": "\u5317\u4eac\u5e02", "city": "\u5317\u4eac\u5e02", "area": "\u671d\u9633\u533a", "detail": 1, "uid": "6a0dbfc71003a249c41e51de"}, {"name": "\u5b89\u8d1e\u95e8", "location": {"lat": 39.983322, "lng": 116.412371}, "address": "\u5730\u94c110\u53f7\u7ebf", "province": "\u5317\u4eac\u5e02", "city": "\u5317\u4eac\u5e02", "area": "\u671d\u9633\u533a", "detail": 1, "uid": "b3731bece30ad8582ab97cde"}, {"name": "\u60e0\u65b0\u897f\u8857\u5357\u53e3", "location": {"lat": 39.983276, "lng": 116.42404}, "address": "\u5730\u94c110\u53f7\u7ebf;\u5730\u94c15\u53f7\u7ebf", "province": "\u5317\u4eac\u5e02", "city": "\u5317\u4eac\u5e02", "area": "\u671d\u9633\u533a", "detail": 1, "uid": "68923af04a242554326212de"}, {"name": "\u548c\u5e73\u91cc\u5317\u8857", "location": {"lat": 39.964752, "lng": 116.425051}, "address": "\u5730\u94c15\u53f7\u7ebf", "province": "\u5317\u4eac\u5e02", "city": "\u5317\u4eac\u5e02", "area": "\u4e1c\u57ce\u533a", "detail": 1, "uid": "5b47d1294abe1ab9f52310de"}, {"name": "\u5317\u65b0\u6865", "location": {"lat": 39.947112, "lng": 116.423298}, "address": "\u5730\u94c15\u53f7\u7ebf", "province": "\u5317\u4eac\u5e02", "city": "\u5317\u4eac\u5e02", "area": "\u4e1c\u57ce\u533a", "detail": 1, "uid": "b00b773e7f6bf160f5b916de"}, {"name": "\u5b89\u5b9a\u95e8", "location": {"lat": 39.955441, "lng": 116.414597}, "address": "\u5730\u94c12\u53f7\u7ebf", "province": "\u5317\u4eac\u5e02", "city": "\u5317\u4eac\u5e02", "area": "\u4e1c\u57ce\u533a", "detail": 1, "uid": "49db5d573370194b9ce321de"}, {"name": "\u96cd\u548c\u5bab", "location": {"lat": 39.955113, "lng": 116.42312}, "address": "\u5730\u94c12\u53f7\u7ebf;\u5730\u94c15\u53f7\u7ebf", "province": "\u5317\u4eac\u5e02", "city": "\u5317\u4eac\u5e02", "area": "\u4e1c\u57ce\u533a", "detail": 1, "uid": "9ba3dcf0fb50b53e200220de"}, {"name": "\u4e1c\u76f4\u95e8", "location": {"lat": 39.947892, "lng": 116.441454}, "address": "\u5730\u94c113\u53f7\u7ebf;\u5730\u94c12\u53f7\u7ebf;\u673a\u573a\u7ebf", "province": "\u5317\u4eac\u5e02", "city": "\u5317\u4eac\u5e02", "area": "\u4e1c\u57ce\u533a", "detail": 1, "uid": "d600d97d2e2bce8caa059dde"}, {"name": "\u5149\u7199\u95e8", "location": {"lat": 39.974474, "lng": 116.438355}, "address": "\u5730\u94c113\u53f7\u7ebf", "province": "\u5317\u4eac\u5e02", "city": "\u5317\u4eac\u5e02", "area": "\u671d\u9633\u533a", "detail": 1, "uid": "22d13de0792cf934912ca3de"}, {"name": "\u828d\u836f\u5c45", "location": {"lat": 39.983549, "lng": 116.443571}, "address": "\u5730\u94c110\u53f7\u7ebf;\u5730\u94c113\u53f7\u7ebf", "province": "\u5317\u4eac\u5e02", "city": "\u5317\u4eac\u5e02", "area": "\u671d\u9633\u533a", "detail": 1, "uid": "34cf35fa9be7ff62c07da2de"}, {"name": "\u5b89\u534e\u6865", "location": {"lat": 39.974878, "lng": 116.400603}, "address": "\u5730\u94c18\u53f7\u7ebf", "province": "\u5317\u4eac\u5e02", "city": "\u5317\u4eac\u5e02", "area": "\u671d\u9633\u533a", "detail": 1, "uid": "3d00aa624525bbe9c5f50dcc"}, {"name": "\u5b89\u5fb7\u91cc\u5317\u8857", "location": {"lat": 39.963931, "lng": 116.400884}, "address": "\u5730\u94c18\u53f7\u7ebf", "province": "\u5317\u4eac\u5e02", "city": "\u5317\u4eac\u5e02", "area": "\u4e1c\u57ce\u533a", "detail": 1, "uid": "644aa46befb94d90b45f1ed8"}, {"name": "\u65b0\u8857\u53e3", "location": {"lat": 39.94658, "lng": 116.374132}, "address": "\u5730\u94c14\u53f7\u7ebf\u5927\u5174\u7ebf", "province": "\u5317\u4eac\u5e02", "city": "\u5317\u4eac\u5e02", "area": "\u897f\u57ce\u533a", "detail": 1, "uid": "d6e547bece4c4917b03c8128"}, {"name": "\u5317\u571f\u57ce", "location": {"lat": 39.983254, "lng": 116.400663}, "address": "\u5730\u94c110\u53f7\u7ebf;\u5730\u94c18\u53f7\u7ebf", "province": "\u5317\u4eac\u5e02", "city": "\u5317\u4eac\u5e02", "area": "\u671d\u9633\u533a", "detail": 1, "uid": "39e10558bdeb6544e11103de"},{"name": "\u5065\u5fb7\u95e8", "location": {"lat": 39.982833, "lng": 116.387816}, "address": "\u5730\u94c110\u53f7\u7ebf", "province": "\u5317\u4eac\u5e02", "city": "\u5317\u4eac\u5e02", "area": "\u6d77\u6dc0\u533a", "detail": 1, "uid": "27d78ecaa35f3ba55c0d02de"}, {"name": "\u9f13\u697c\u5927\u8857", "location": {"lat": 39.954724, "lng": 116.40011}, "address": "\u5730\u94c12\u53f7\u7ebf;\u5730\u94c18\u53f7\u7ebf", "province": "\u5317\u4eac\u5e02", "city": "\u5317\u4eac\u5e02", "area": "\u897f\u57ce\u533a", "detail": 1, "uid": "c97c95779f05a5aabea822de"}, {"name": "\u4e2d\u56fd\u7f8e\u672f\u9986", "location": {"lat": 39.930646, "lng": 116.417375}, "address": "\u5730\u94c18\u53f7\u7ebf", "province": "\u5317\u4eac\u5e02", "city": "\u5317\u4eac\u5e02", "area": "\u4e1c\u57ce\u533a", "detail": 1, "uid": "aedafb2683b10d3552e5c53b"}, {"name": "\u5f20\u81ea\u5fe0\u8def", "location": {"lat": 39.939914, "lng": 116.423579}, "address": "\u5730\u94c15\u53f7\u7ebf", "province": "\u5317\u4eac\u5e02", "city": "\u5317\u4eac\u5e02", "area": "\u4e1c\u57ce\u533a", "detail": 1, "uid": "0e283020d139f925c82915de"}, {"name": "\u4e1c\u56db", "location": {"lat": 39.930647, "lng": 116.423405}, "address": "\u5730\u94c15\u53f7\u7ebf;\u5730\u94c16\u53f7\u7ebf", "province": "\u5317\u4eac\u5e02", "city": "\u5317\u4eac\u5e02", "area": "\u4e1c\u57ce\u533a", "detail": 1, "uid": "4d388f0396275777c06c14de"}, {"name": "\u706f\u5e02\u53e3", "location": {"lat": 39.923603, "lng": 116.424169}, "address": "\u5730\u94c15\u53f7\u7ebf", "province": "\u5317\u4eac\u5e02", "city": "\u5317\u4eac\u5e02", "area": "\u4e1c\u57ce\u533a", "detail": 1, "uid": "43aec313290410696e3e1bde"}, {"name": "\u4e1c\u56db\u5341\u6761", "location": {"lat": 39.939841, "lng": 116.440638}, "address": "\u5730\u94c12\u53f7\u7ebf", "province": "\u5317\u4eac\u5e02", "city": "\u5317\u4eac\u5e02", "area": "\u4e1c\u57ce\u533a", "detail": 1, "uid": "269987ecaf8ffcb9445726de"}, {"name": "\u5efa\u56fd\u95e8", "location": {"lat": 39.914505, "lng": 116.441577}, "address": "\u5730\u94c11\u53f7\u7ebf;\u5730\u94c12\u53f7\u7ebf", "province": "\u5317\u4eac\u5e02", "city": "\u5317\u4eac\u5e02", "area": "\u671d\u9633\u533a", "detail": 1, "uid": "493a61dbcd6e54eaaaf0cdde"}, {"name": "\u5317\u4eac\u7ad9", "location": {"lat": 39.911127, "lng": 116.433608}, "address": "\u5730\u94c12\u53f7\u7ebf", "province": "\u5317\u4eac\u5e02", "city": "\u5317\u4eac\u5e02", "area": "\u4e1c\u57ce\u533a", "detail": 1, "uid": "7b203011c7dc4b206da3ccde"}, {"name": "\u5d07\u6587\u95e8", "location": {"lat": 39.906953, "lng": 116.424439}, "address": "\u5730\u94c12\u53f7\u7ebf;\u5730\u94c15\u53f7\u7ebf", "province": "\u5317\u4eac\u5e02", "city": "\u5317\u4eac\u5e02", "area": "\u4e1c\u57ce\u533a", "detail": 1, "uid": "1f7f3d0b961641927269d3de"}, {"name": "\u4e1c\u5355", "location": {"lat": 39.914503, "lng": 116.425248}, "address": "\u5730\u94c11\u53f7\u7ebf;\u5730\u94c15\u53f7\u7ebf", "province": "\u5317\u4eac\u5e02", "city": "\u5317\u4eac\u5e02", "area": "\u4e1c\u57ce\u533a", "detail": 1, "uid": "ddf8806835284eacd718b7de"}, {"name": "\u5317\u6d77\u5317", "location": {"lat": 39.939493, "lng": 116.39289}, "address": "\u5730\u94c16\u53f7\u7ebf", "province": "\u5317\u4eac\u5e02", "city": "\u5317\u4eac\u5e02", "area": "\u897f\u57ce\u533a", "detail": 1, "uid": "a4e10fcaa35f3ba55c0d02cc"}, {"name": "\u5357\u9523\u9f13\u5df7", "location": {"lat": 39.93984, "lng": 116.409683}, "address": "\u5730\u94c16\u53f7\u7ebf;\u5730\u94c18\u53f7\u7ebf", "province": "\u5317\u4eac\u5e02", "city": "\u5317\u4eac\u5e02", "area": "\u4e1c\u57ce\u533a", "detail": 1, "uid": "cfaef99f6672f32dad31e535"}, {"name": "\u4ec0\u5239\u6d77", "location": {"lat": 39.944154, "lng": 116.402547}, "address": "\u5730\u94c18\u53f7\u7ebf", "province": "\u5317\u4eac\u5e02", "city": "\u5317\u4eac\u5e02", "area": "\u4e1c\u57ce\u533a", "detail": 1, "uid": "ebf314200e805ddd2fe67bb8"}, {"name": "\u7075\u5883\u80e1\u540c", "location": {"lat": 39.922136, "lng": 116.380223}, "address": "\u5730\u94c14\u53f7\u7ebf\u5927\u5174\u7ebf", "province": "\u5317\u4eac\u5e02", "city": "\u5317\u4eac\u5e02", "area": "\u897f\u57ce\u533a", "detail": 1, "uid": "5f67a93c56e2c864f5eafc28"}, {"name": "\u897f\u56db", "location": {"lat": 39.930036, "lng": 116.37993}, "address": "\u5730\u94c14\u53f7\u7ebf\u5927\u5174\u7ebf", "province": "\u5317\u4eac\u5e02", "city": "\u5317\u4eac\u5e02", "area": "\u897f\u57ce\u533a", "detail": 1, "uid": "5f72695e0f3bd0acf12d8328"}, {"name": "\u5e73\u5b89\u91cc", "location": {"lat": 39.939264, "lng": 116.378635}, "address": "\u5730\u94c14\u53f7\u7ebf\u5927\u5174\u7ebf;\u5730\u94c16\u53f7\u7ebf", "province": "\u5317\u4eac\u5e02", "city": "\u5317\u4eac\u5e02", "area": "\u897f\u57ce\u533a", "detail": 1, "uid": "7387684bcf598975e9e58228"}, {"name": "\u548c\u5e73\u95e8", "location": {"lat": 39.906362, "lng": 116.390619}, "address": "\u5730\u94c12\u53f7\u7ebf", "province": "\u5317\u4eac\u5e02", "city": "\u5317\u4eac\u5e02", "area": "\u897f\u57ce\u533a", "detail": 1, "uid": "453ac92dfe531d422911d1de"}, {"name": "\u5ba3\u6b66\u95e8", "location": {"lat": 39.905881, "lng": 116.380848}, "address": "\u5730\u94c12\u53f7\u7ebf;\u5730\u94c14\u53f7\u7ebf\u5927\u5174\u7ebf", "province": "\u5317\u4eac\u5e02", "city": "\u5317\u4eac\u5e02", "area": "\u897f\u57ce\u533a", "detail": 1, "uid": "538300116f2a781d240bd0de"}, {"name": "\u957f\u693f\u8857", "location": {"lat": 39.90534, "lng": 116.369911}, "address": "\u5730\u94c12\u53f7\u7ebf", "province": "\u5317\u4eac\u5e02", "city": "\u5317\u4eac\u5e02", "area": "\u897f\u57ce\u533a", "detail": 1, "uid": "92e811a8a616e9644154d7de"},{"name": "\u5929\u5b89\u95e8\u4e1c", "location": {"lat": 39.91408, "lng": 116.407851}, "address": "\u5730\u94c11\u53f7\u7ebf", "province": "\u5317\u4eac\u5e02", "city": "\u5317\u4eac\u5e02", "area": "\u4e1c\u57ce\u533a", "detail": 1, "uid": "940aeb3c98d5a0218a2fb5de"}, {"name": "\u5929\u5b89\u95e8\u897f", "location": {"lat": 39.913776, "lng": 116.39805}, "address": "\u5730\u94c11\u53f7\u7ebf", "province": "\u5317\u4eac\u5e02", "city": "\u5317\u4eac\u5e02", "area": "\u897f\u57ce\u533a", "detail": 1, "uid": "002975204d3b1e9b9968b4de"}, {"name": "\u897f\u5355", "location": {"lat": 39.913329, "lng": 116.382001}, "address": "\u5730\u94c11\u53f7\u7ebf;\u5730\u94c14\u53f7\u7ebf\u5927\u5174\u7ebf", "province": "\u5317\u4eac\u5e02", "city": "\u5317\u4eac\u5e02", "area": "\u897f\u57ce\u533a", "detail": 1, "uid": "722fee03d327cb7527d2bbde"}, {"name": "\u571f\u6865", "location": {"lat": 39.877629, "lng": 116.69298}, "address": "\u5730\u94c1\u516b\u901a\u7ebf", "province": "\u5317\u4eac\u5e02", "city": "\u5317\u4eac\u5e02", "area": "\u901a\u5dde\u533a", "detail": 1, "uid": "cabe562f160a30200c3ddade"}, {"name": "\u4e34\u6cb3\u91cc", "location": {"lat": 39.881239, "lng": 116.685467}, "address": "\u5730\u94c1\u516b\u901a\u7ebf", "province": "\u5317\u4eac\u5e02", "city": "\u5317\u4eac\u5e02", "area": "\u901a\u5dde\u533a", "detail": 1, "uid": "5de78695f02890440969d9de"}, {"name": "\u68a8\u56ed", "location": {"lat": 39.889716, "lng": 116.675218}, "address": "\u5730\u94c1\u516b\u901a\u7ebf", "province": "\u5317\u4eac\u5e02", "city": "\u5317\u4eac\u5e02", "area": "\u901a\u5dde\u533a", "detail": 1, "uid": "643c10cc20927666a90dd8de"}, {"name": "\u4e5d\u68f5\u6811", "location": {"lat": 39.896462, "lng": 116.663922}, "address": "\u5730\u94c1\u516b\u901a\u7ebf", "province": "\u5317\u4eac\u5e02", "city": "\u5317\u4eac\u5e02", "area": "\u901a\u5dde\u533a", "detail": 1, "uid": "81172e17b6cba6dc4f2fdfde"}, {"name": "\u679c\u56ed", "location": {"lat": 39.89966, "lng": 116.653044}, "address": "\u5730\u94c1\u516b\u901a\u7ebf", "province": "\u5317\u4eac\u5e02", "city": "\u5317\u4eac\u5e02", "area": "\u901a\u5dde\u533a", "detail": 1, "uid": "8407ca3c881030859f95dede"}, {"name": "\u4ea6\u5e84\u706b\u8f66\u7ad9", "location": {"lat": 39.818275, "lng": 116.608099}, "address": "\u5730\u94c1\u4ea6\u5e84\u7ebf", "province": "\u5317\u4eac\u5e02", "city": "\u5317\u4eac\u5e02", "area": "\u901a\u5dde\u533a", "detail": 1, "uid": "a085ae1245f332f1ae31e5b0"}, {"name": "\u6b21\u6e20\u5357", "location": {"lat": 39.800804, "lng": 116.587934}, "address": "\u5730\u94c1\u4ea6\u5e84\u7ebf", "province": "\u5317\u4eac\u5e02", "city": "\u5317\u4eac\u5e02", "area": "\u901a\u5dde\u533a", "detail": 1, "uid": "e79bcd2d4aed015a5ed4fe6d"}, {"name": "\u7ecf\u6d77\u8def", "location": {"lat": 39.789493, "lng": 116.568912}, "address": "\u5730\u94c1\u4ea6\u5e84\u7ebf", "province": "\u5317\u4eac\u5e02", "city": "\u5317\u4eac\u5e02", "area": "\u901a\u5dde\u533a", "detail": 1, "uid": "fe53c9ea8714679d55bfff6d"}, {"name": "\u6b22\u4e50\u8c37\u666f\u533a", "location": {"lat": 39.872916, "lng": 116.505927}, "address": "\u5730\u94c17\u53f7\u7ebf", "province": "\u5317\u4eac\u5e02", "city": "\u5317\u4eac\u5e02", "area": "\u671d\u9633\u533a", "detail": 1, "uid": "ea4f4467b89d21544002459b"}, {"name": "\u767e\u5b50\u6e7e", "location": {"lat": 39.898935, "lng": 116.50382}, "address": "\u5730\u94c17\u53f7\u7ebf", "province": "\u5317\u4eac\u5e02", "city": "\u5317\u4eac\u5e02", "area": "\u671d\u9633\u533a", "detail": 1, "uid": "f6ff7cd713d79186b2077d56"}, {"name": "\u5316\u5de5", "location": {"lat": 39.893222, "lng": 116.510091}, "address": "\u5730\u94c17\u53f7\u7ebf", "province": "\u5317\u4eac\u5e02", "city": "\u5317\u4eac\u5e02", "area": "\u671d\u9633\u533a", "detail": 1, "uid": "77ed7dacc17501cfae045745"}, {"name": "\u57a1\u5934", "location": {"lat": 39.867184, "lng": 116.518225}, "address": "\u5730\u94c17\u53f7\u7ebf", "province": "\u5317\u4eac\u5e02", "city": "\u5317\u4eac\u5e02", "area": "\u671d\u9633\u533a", "detail": 1, "uid": "6ae6745c9729e458d3ff2308"}, {"name": "\u5357\u697c\u6893\u5e84", "location": {"lat": 39.88078, "lng": 116.507808}, "address": "\u5730\u94c17\u53f7\u7ebf", "province": "\u5317\u4eac\u5e02", "city": "\u5317\u4eac\u5e02", "area": "\u671d\u9633\u533a", "detail": 1, "uid": "b98d4ccadeeb0e419cf77949"}, {"name": "\u53cc\u5408", "location": {"lat": 39.866414, "lng": 116.533265}, "address": "\u5730\u94c17\u53f7\u7ebf", "province": "\u5317\u4eac\u5e02", "city": "\u5317\u4eac\u5e02", "area": "\u671d\u9633\u533a", "detail": 1, "uid": "0a7813b766065c7ec7f50d9f"}, {"name": "\u6f58\u5bb6\u56ed", "location": {"lat": 39.881735, "lng": 116.467741}, "address": "\u5730\u94c110\u53f7\u7ebf", "province": "\u5317\u4eac\u5e02", "city": "\u5317\u4eac\u5e02", "area": "\u671d\u9633\u533a", "detail": 1, "uid": "fb1d5c1e6219d2b192114ccc"}, {"name": "\u5e73\u4e50\u56ed", "location": {"lat": 39.890758, "lng": 116.483967}, "address": "\u5730\u94c114\u53f7\u7ebf\u4e1c\u6bb5", "province": "\u5317\u4eac\u5e02", "city": "\u5317\u4eac\u5e02", "area": "\u671d\u9633\u533a", "detail": 1, "uid": "8aa5dc0e4045f4e2b817e78d"}, {"name": "\u5927\u90ca\u4ead", "location": {"lat": 39.899072, "lng": 116.494711}, "address": "\u5730\u94c17\u53f7\u7ebf", "province": "\u5317\u4eac\u5e02", "city": "\u5317\u4eac\u5e02", "area": "\u671d\u9633\u533a", "detail": 1, "uid": "aedf28249adf1eb94afd3f5c"},{"name": "\u52b2\u677e", "location": {"lat": 39.890027, "lng": 116.46801}, "address": "\u5730\u94c110\u53f7\u7ebf", "province": "\u5317\u4eac\u5e02", "city": "\u5317\u4eac\u5e02", "area": "\u671d\u9633\u533a", "detail": 1, "uid": "329c192994fb88054acc4ade"}, {"name": "\u53cc\u4e95", "location": {"lat": 39.899186, "lng": 116.468453}, "address": "\u5730\u94c110\u53f7\u7ebf", "province": "\u5317\u4eac\u5e02", "city": "\u5317\u4eac\u5e02", "area": "\u671d\u9633\u533a", "detail": 1, "uid": "f8dcceb7bf2e12b5b14c49de"}, {"name": "\u5e7f\u6e20\u95e8\u5916", "location": {"lat": 39.899309, "lng": 116.455911}, "address": "\u5730\u94c17\u53f7\u7ebf", "province": "\u5317\u4eac\u5e02", "city": "\u5317\u4eac\u5e02", "area": "\u4e1c\u57ce\u533a", "detail": 1, "uid": "9c9d7d84b1af78592cb17e39"}, {"name": "\u5341\u91cc\u6cb3", "location": {"lat": 39.871712, "lng": 116.465176}, "address": "\u5730\u94c110\u53f7\u7ebf;\u5730\u94c114\u53f7\u7ebf\u4e1c\u6bb5", "province": "\u5317\u4eac\u5e02", "city": "\u5317\u4eac\u5e02", "area": "\u671d\u9633\u533a", "detail": 1, "uid": "cea92a31b23ec1185fd4feeb"}, {"name": "\u5317\u5de5\u5927\u897f\u95e8", "location": {"lat": 39.880747, "lng": 116.484017}, "address": "\u5730\u94c114\u53f7\u7ebf\u4e1c\u6bb5", "province": "\u5317\u4eac\u5e02", "city": "\u5317\u4eac\u5e02", "area": "\u671d\u9633\u533a", "detail": 1, "uid": "4febfe51ac3d24499cf77947"}, {"name": "\u4e5d\u9f99\u5c71", "location": {"lat": 39.899525, "lng": 116.484689}, "address": "\u5730\u94c114\u53f7\u7ebf\u4e1c\u6bb5;\u5730\u94c17\u53f7\u7ebf", "province": "\u5317\u4eac\u5e02", "city": "\u5317\u4eac\u5e02", "area": "\u671d\u9633\u533a", "detail": 1, "uid": "179011335d98b1256168586b"}, {"name": "\u5206\u949f\u5bfa", "location": {"lat": 39.857886, "lng": 116.460348}, "address": "\u5730\u94c110\u53f7\u7ebf", "province": "\u5317\u4eac\u5e02", "city": "\u5317\u4eac\u5e02", "area": "\u4e30\u53f0\u533a", "detail": 1, "uid": "f8da37042407fd57dd1e52cc"}, {"name": "\u5c0f\u7ea2\u95e8", "location": {"lat": 39.83399, "lng": 116.465808}, "address": "\u5730\u94c1\u4ea6\u5e84\u7ebf", "province": "\u5317\u4eac\u5e02", "city": "\u5317\u4eac\u5e02", "area": "\u671d\u9633\u533a", "detail": 1, "uid": "d0910b86baf92f819e09f76d"}, {"name": "\u6865\u6e7e", "location": {"lat": 39.899001, "lng": 116.414901}, "address": "\u5730\u94c17\u53f7\u7ebf", "province": "\u5317\u4eac\u5e02", "city": "\u5317\u4eac\u5e02", "area": "\u4e1c\u57ce\u533a", "detail": 1, "uid": "9a6587ccccaea46a81288a2e"}, {"name": "\u5929\u575b\u4e1c\u95e8", "location": {"lat": 39.888497, "lng": 116.427392}, "address": "\u5730\u94c15\u53f7\u7ebf", "province": "\u5317\u4eac\u5e02", "city": "\u5317\u4eac\u5e02", "area": "\u4e1c\u57ce\u533a", "detail": 1, "uid": "43d423228cf08f16d5851fde"}, {"name": "\u84b2\u9ec4\u6986", "location": {"lat": 39.871689, "lng": 116.428894}, "address": "\u5730\u94c114\u53f7\u7ebf\u4e1c\u6bb5;\u5730\u94c15\u53f7\u7ebf", "province": "\u5317\u4eac\u5e02", "city": "\u5317\u4eac\u5e02", "area": "\u4e30\u53f0\u533a", "detail": 1, "uid": "2f83c8ff85250abeb65f1ede"}, {"name": "\u5218\u5bb6\u7a91", "location": {"lat": 39.863697, "lng": 116.428565}, "address": "\u5730\u94c15\u53f7\u7ebf", "province": "\u5317\u4eac\u5e02", "city": "\u5317\u4eac\u5e02", "area": "\u4e30\u53f0\u533a", "detail": 1, "uid": "0cc8a7a86ef8036b33f71dde"}, {"name": "\u5e7f\u6e20\u95e8\u5185", "location": {"lat": 39.899616, "lng": 116.440943}, "address": "\u5730\u94c17\u53f7\u7ebf", "province": "\u5317\u4eac\u5e02", "city": "\u5317\u4eac\u5e02", "area": "\u4e1c\u57ce\u533a", "detail": 1, "uid": "5b4a42dab2673818b35c6a8b"}, {"name": "\u666f\u6cf0", "location": {"lat": 39.871443, "lng": 116.417164}, "address": "\u5730\u94c114\u53f7\u7ebf\u4e1c\u6bb5", "province": "\u5317\u4eac\u5e02", "city": "\u5317\u4eac\u5e02", "area": "\u4e1c\u57ce\u533a", "detail": 1, "uid": "0a12e7072b0fec75c6f025de"}, {"name": "\u65b9\u5e84", "location": {"lat": 39.871749, "lng": 116.446196}, "address": "\u5730\u94c114\u53f7\u7ebf\u4e1c\u6bb5", "province": "\u5317\u4eac\u5e02", "city": "\u5317\u4eac\u5e02", "area": "\u4e30\u53f0\u533a", "detail": 1, "uid": "9a4692a87ef6e54cc0364470"}, {"name": "\u78c1\u5668\u53e3", "location": {"lat": 39.899339, "lng": 116.426035}, "address": "\u5730\u94c15\u53f7\u7ebf;\u5730\u94c17\u53f7\u7ebf", "province": "\u5317\u4eac\u5e02", "city": "\u5317\u4eac\u5e02", "area": "\u4e1c\u57ce\u533a", "detail": 1, "uid": "9f5c0a9e1dc559654e2fdf41"}, {"name": "\u9a6c\u5bb6\u5821", "location": {"lat": 39.859199, "lng": 116.377878}, "address": "\u5730\u94c14\u53f7\u7ebf\u5927\u5174\u7ebf", "province": "\u5317\u4eac\u5e02", "city": "\u5317\u4eac\u5e02", "area": "\u4e30\u53f0\u533a", "detail": 1, "uid": "6bed4cbf5073da5cea56fa28"}, {"name": "\u6728\u6a28\u56ed", "location": {"lat": 39.865682, "lng": 116.406334}, "address": "\u5730\u94c18\u53f7\u7ebf\u5357\u6bb5", "province": "\u5317\u4eac\u5e02", "city": "\u5317\u4eac\u5e02", "area": "\u4e1c\u57ce\u533a", "detail": 1, "uid": "8cc98a74b6875481badf8f4d"}, {"name": "\u83dc\u5e02\u53e3", "location": {"lat": 39.895375, "lng": 116.38074}, "address": "\u5730\u94c14\u53f7\u7ebf\u5927\u5174\u7ebf;\u5730\u94c17\u53f7\u7ebf", "province": "\u5317\u4eac\u5e02", "city": "\u5317\u4eac\u5e02", "area": "\u897f\u57ce\u533a", "detail": 1, "uid": "d2bae5a69b799790631c67e0"}, {"name": "\u864e\u574a\u6865", "location": {"lat": 39.895691, "lng": 116.390654}, "address": "\u5730\u94c17\u53f7\u7ebf", "province": "\u5317\u4eac\u5e02", "city": "\u5317\u4eac\u5e02", "area": "\u897f\u57ce\u533a", "detail": 1, "uid": "26d4a4a4c12825e1cac3db60"},{"name": "\u5929\u6865", "location": {"lat": 39.888891, "lng": 116.405247}, "address": "\u5730\u94c18\u53f7\u7ebf\u5357\u6bb5", "province": "\u5317\u4eac\u5e02", "city": "\u5317\u4eac\u5e02", "area": "\u4e1c\u57ce\u533a", "detail": 1, "uid": "3a86cbf0ee81e395095cb358"}, {"name": "\u6210\u5bff\u5bfa", "location": {"lat": 39.851457, "lng": 116.454315}, "address": "\u5730\u94c110\u53f7\u7ebf", "province": "\u5317\u4eac\u5e02", "city": "\u5317\u4eac\u5e02", "area": "\u671d\u9633\u533a", "detail": 1, "uid": "eb3b3ec71003a249c41e51cc"}, {"name": "\u77f3\u69b4\u5e84", "location": {"lat": 39.852109, "lng": 116.420566}, "address": "\u5730\u94c110\u53f7\u7ebf", "province": "\u5317\u4eac\u5e02", "city": "\u5317\u4eac\u5e02", "area": "\u4e30\u53f0\u533a", "detail": 1, "uid": "28582c4f09219f8eaf0457cc"}, {"name": "\u8096\u6751", "location": {"lat": 39.839926, "lng": 116.455024}, "address": "\u5730\u94c1\u4ea6\u5e84\u7ebf", "province": "\u5317\u4eac\u5e02", "city": "\u5317\u4eac\u5e02", "area": "\u671d\u9633\u533a", "detail": 1, "uid": "2ff839fea9cfa740cb09f06d"}, {"name": "\u5b8b\u5bb6\u5e84", "location": {"lat": 39.851941, "lng": 116.434913}, "address": "\u5730\u94c110\u53f7\u7ebf;\u5730\u94c15\u53f7\u7ebf;\u5730\u94c1\u4ea6\u5e84\u7ebf", "province": "\u5317\u4eac\u5e02", "city": "\u5317\u4eac\u5e02", "area": "\u4e30\u53f0\u533a", "detail": 1, "uid": "31e53429c2e36c4379b55c25"}, {"name": "\u89d2\u95e8\u4e1c", "location": {"lat": 39.851487, "lng": 116.392751}, "address": "\u5730\u94c110\u53f7\u7ebf", "province": "\u5317\u4eac\u5e02", "city": "\u5317\u4eac\u5e02", "area": "\u4e30\u53f0\u533a", "detail": 1, "uid": "2c469aece30ad8582ab97ccd"}, {"name": "\u5927\u7ea2\u95e8", "location": {"lat": 39.851841, "lng": 116.406253}, "address": "\u5730\u94c110\u53f7\u7ebf", "province": "\u5317\u4eac\u5e02", "city": "\u5317\u4eac\u5e02", "area": "\u4e30\u53f0\u533a", "detail": 1, "uid": "f30aeb450b488f6fa6c756cc"}, {"name": "\u516c\u76ca\u897f\u6865", "location": {"lat": 39.843056, "lng": 116.377314}, "address": "\u5730\u94c14\u53f7\u7ebf\u5927\u5174\u7ebf", "province": "\u5317\u4eac\u5e02", "city": "\u5317\u4eac\u5e02", "area": "\u4e30\u53f0\u533a", "detail": 1, "uid": "db2cf35678e80ecf05fef528"}, {"name": "\u89d2\u95e8\u897f", "location": {"lat": 39.851929, "lng": 116.377644}, "address": "\u5730\u94c110\u53f7\u7ebf;\u5730\u94c14\u53f7\u7ebf\u5927\u5174\u7ebf", "province": "\u5317\u4eac\u5e02", "city": "\u5317\u4eac\u5e02", "area": "\u4e30\u53f0\u533a", "detail": 1, "uid": "6386f6745c12d31fc7effb28"}, {"name": "\u6d77\u6237\u5c6f", "location": {"lat": 39.858215, "lng": 116.406712}, "address": "\u5730\u94c18\u53f7\u7ebf\u5357\u6bb5", "province": "\u5317\u4eac\u5e02", "city": "\u5317\u4eac\u5e02", "area": "\u4e30\u53f0\u533a", "detail": 1, "uid": "dd699f6c5f952904a7c75607"}, {"name": "\u5927\u7ea2\u95e8\u5357", "location": {"lat": 39.842626, "lng": 116.407454}, "address": "\u5730\u94c18\u53f7\u7ebf\u5357\u6bb5", "province": "\u5317\u4eac\u5e02", "city": "\u5317\u4eac\u5e02", "area": "\u4e30\u53f0\u533a", "detail": 1, "uid": "13ab86fd1af3d21beb56fafa"}, {"name": "\u548c\u4e49", "location": {"lat": 39.821382, "lng": 116.408508}, "address": "\u5730\u94c18\u53f7\u7ebf\u5357\u6bb5", "province": "\u5317\u4eac\u5e02", "city": "\u5317\u4eac\u5e02", "area": "\u4e30\u53f0\u533a", "detail": 1, "uid": "7f947e7b8f8c2fc6f5c59c03"}, {"name": "\u4e07\u6e90\u8857", "location": {"lat": 39.809251, "lng": 116.511928}, "address": "\u5730\u94c1\u4ea6\u5e84\u7ebf", "province": "\u5317\u4eac\u5e02", "city": "\u5317\u4eac\u5e02", "area": "\u5927\u5174\u533a", "detail": 1, "uid": "46c1d3745c12d31fc7effb6d"}, {"name": "\u65e7\u5bab", "location": {"lat": 39.812543, "lng": 116.467432}, "address": "\u5730\u94c1\u4ea6\u5e84\u7ebf", "province": "\u5317\u4eac\u5e02", "city": "\u5317\u4eac\u5e02", "area": "\u5927\u5174\u533a", "detail": 1, "uid": "fc28fbef88813cb716c8f66d"}, {"name": "\u4ea6\u5e84\u6865", "location": {"lat": 39.808826, "lng": 116.486851}, "address": "\u5730\u94c1\u4ea6\u5e84\u7ebf", "province": "\u5317\u4eac\u5e02", "city": "\u5317\u4eac\u5e02", "area": "\u5927\u5174\u533a", "detail": 1, "uid": "f66bd65678e80ecf05fef56d"}, {"name": "\u4ea6\u5e84\u6587\u5316\u56ed", "location": {"lat": 39.812839, "lng": 116.49701}, "address": "\u5730\u94c1\u4ea6\u5e84\u7ebf", "province": "\u5317\u4eac\u5e02", "city": "\u5317\u4eac\u5e02", "area": "\u5927\u5174\u533a", "detail": 1, "uid": "fb0adf155551fea63786f46d"}, {"name": "\u701b\u6d77", "location": {"lat": 39.766756, "lng": 116.455615}, "address": "\u5730\u94c18\u53f7\u7ebf\u5357\u6bb5", "province": "\u5317\u4eac\u5e02", "city": "\u5317\u4eac\u5e02", "area": "\u5927\u5174\u533a", "detail": 1, "uid": "06484e90dbc945524354d7be"}, {"name": "\u4e94\u798f\u5802", "location": {"lat": 39.791422, "lng": 116.430158}, "address": "\u5730\u94c18\u53f7\u7ebf\u5357\u6bb5", "province": "\u5317\u4eac\u5e02", "city": "\u5317\u4eac\u5e02", "area": "\u5927\u5174\u533a", "detail": 1, "uid": "9bdfc4fccbd747aec33644a8"}, {"name": "\u706b\u7bad\u4e07\u6e90", "location": {"lat": 39.805336, "lng": 116.425129}, "address": "\u5730\u94c18\u53f7\u7ebf\u5357\u6bb5", "province": "\u5317\u4eac\u5e02", "city": "\u5317\u4eac\u5e02", "area": "\u4e30\u53f0\u533a", "detail": 1, "uid": "2c1847170a57fe292afc4869"}, {"name": "\u5fb7\u8302", "location": {"lat": 39.778312, "lng": 116.448258}, "address": "\u5730\u94c18\u53f7\u7ebf\u5357\u6bb5", "province": "\u5317\u4eac\u5e02", "city": "\u5317\u4eac\u5e02", "area": "\u5927\u5174\u533a", "detail": 1, "uid": "1324aed17b30f176d23ce311"},{"name": "\u4e1c\u9ad8\u5730", "location": {"lat": 39.811433, "lng": 116.415686}, "address": "\u5730\u94c18\u53f7\u7ebf\u5357\u6bb5", "province": "\u5317\u4eac\u5e02", "city": "\u5317\u4eac\u5e02", "area": "\u4e30\u53f0\u533a", "detail": 1, "uid": "1e384e24a64114bf4d3a59b8"}, {"name": "\u80b2\u65b0", "location": {"lat": 40.066124, "lng": 116.353997}, "address": "\u5730\u94c18\u53f7\u7ebf", "province": "\u5317\u4eac\u5e02", "city": "\u5317\u4eac\u5e02", "area": "\u6d77\u6dc0\u533a", "detail": 1, "uid": "73eae3779f05a5aabfa822ac"}, {"name": "\u897f\u5c0f\u53e3", "location": {"lat": 40.052716, "lng": 116.358213}, "address": "\u5730\u94c18\u53f7\u7ebf", "province": "\u5317\u4eac\u5e02", "city": "\u5317\u4eac\u5e02", "area": "\u6d77\u6dc0\u533a", "detail": 1, "uid": "f34d2b573370194b9de321ac"}, {"name": "\u970d\u8425", "location": {"lat": 40.077129, "lng": 116.366721}, "address": "\u5730\u94c113\u53f7\u7ebf;\u5730\u94c18\u53f7\u7ebf", "province": "\u5317\u4eac\u5e02", "city": "\u5317\u4eac\u5e02", "area": "\u660c\u5e73\u533a", "detail": 1, "uid": "182633d77101d6ad39e4a6de"}, {"name": "\u56de\u9f99\u89c2", "location": {"lat": 40.076426, "lng": 116.34232}, "address": "\u5730\u94c113\u53f7\u7ebf", "province": "\u5317\u4eac\u5e02", "city": "\u5317\u4eac\u5e02", "area": "\u660c\u5e73\u533a", "detail": 1, "uid": "686b080d95d0f74fefe4a5de"}, {"name": "\u9f99\u6cfd", "location": {"lat": 40.076647, "lng": 116.326173}, "address": "\u5730\u94c113\u53f7\u7ebf", "province": "\u5317\u4eac\u5e02", "city": "\u5317\u4eac\u5e02", "area": "\u660c\u5e73\u533a", "detail": 1, "uid": "b60b7940ae0a139ece06a4de"}, {"name": "\u516d\u9053\u53e3", "location": {"lat": 40.006718, "lng": 116.359309}, "address": "\u5730\u94c115\u53f7\u7ebf", "province": "\u5317\u4eac\u5e02", "city": "\u5317\u4eac\u5e02", "area": "\u6d77\u6dc0\u533a", "detail": 1, "uid": "01667fc3bf46c9afb11e36db"}, {"name": "\u5317\u4eac\u5927\u5b66\u4e1c\u95e8", "location": {"lat": 39.998006, "lng": 116.322265}, "address": "\u5730\u94c14\u53f7\u7ebf\u5927\u5174\u7ebf", "province": "\u5317\u4eac\u5e02", "city": "\u5317\u4eac\u5e02", "area": "\u6d77\u6dc0\u533a", "detail": 1, "uid": "6cc50f9404d8b0f08d1a8928"}, {"name": "\u5706\u660e\u56ed", "location": {"lat": 40.005466, "lng": 116.315938}, "address": "\u5730\u94c14\u53f7\u7ebf\u5927\u5174\u7ebf", "province": "\u5317\u4eac\u5e02", "city": "\u5317\u4eac\u5e02", "area": "\u6d77\u6dc0\u533a", "detail": 1, "uid": "b4c951fca993829689b98828"}, {"name": "\u897f\u82d1", "location": {"lat": 40.004726, "lng": 116.298094}, "address": "\u5730\u94c116\u53f7\u7ebf;\u5730\u94c14\u53f7\u7ebf\u5927\u5174\u7ebf", "province": "\u5317\u4eac\u5e02", "city": "\u5317\u4eac\u5e02", "area": "\u6d77\u6dc0\u533a", "detail": 1, "uid": "78298ef0f7fb2fddbbdf8f28"}, {"name": "\u5317\u5bab\u95e8", "location": {"lat": 40.008678, "lng": 116.28399}, "address": "\u5730\u94c14\u53f7\u7ebf\u5927\u5174\u7ebf", "province": "\u5317\u4eac\u5e02", "city": "\u5317\u4eac\u5e02", "area": "\u6d77\u6dc0\u533a", "detail": 1, "uid": "60d8431028f771b516948e28"}, {"name": "\u519c\u5927\u5357\u8def", "location": {"lat": 40.027823, "lng": 116.288702}, "address": "\u5730\u94c116\u53f7\u7ebf", "province": "\u5317\u4eac\u5e02", "city": "\u5317\u4eac\u5e02", "area": "\u6d77\u6dc0\u533a", "detail": 1, "uid": "f55dd9e80ba0a48bf92213bd"}, {"name": "\u897f\u5317\u65fa", "location": {"lat": 40.055297, "lng": 116.264078}, "address": "\u5730\u94c116\u53f7\u7ebf", "province": "\u5317\u4eac\u5e02", "city": "\u5317\u4eac\u5e02", "area": "\u6d77\u6dc0\u533a", "detail": 1, "uid": "67b4fafcc9ddfe4eca291538"}, {"name": "\u6c38\u4e30", "location": {"lat": 40.077644, "lng": 116.244766}, "address": "\u5730\u94c116\u53f7\u7ebf", "province": "\u5317\u4eac\u5e02", "city": "\u5317\u4eac\u5e02", "area": "\u6d77\u6dc0\u533a", "detail": 1, "uid": "b3f79d48a241a32583a00cf6"}, {"name": "\u7a3b\u9999\u6e56\u8def", "location": {"lat": 40.074788, "lng": 116.194753}, "address": "\u5730\u94c116\u53f7\u7ebf", "province": "\u5317\u4eac\u5e02", "city": "\u5317\u4eac\u5e02", "area": "\u6d77\u6dc0\u533a", "detail": 1, "uid": "0dfcb1edc4f3013b0869d919"}, {"name": "\u5c6f\u4f43", "location": {"lat": 40.074106, "lng": 116.222442}, "address": "\u5730\u94c116\u53f7\u7ebf", "province": "\u5317\u4eac\u5e02", "city": "\u5317\u4eac\u5e02", "area": "\u6d77\u6dc0\u533a", "detail": 1, "uid": "c74e42eec82ef46803294fcc"}, {"name": "\u5b89\u6cb3\u6865\u5317", "location": {"lat": 40.018657, "lng": 116.276432}, "address": "\u5730\u94c14\u53f7\u7ebf\u5927\u5174\u7ebf", "province": "\u5317\u4eac\u5e02", "city": "\u5317\u4eac\u5e02", "area": "\u6d77\u6dc0\u533a", "detail": 1, "uid": "fae158e1e517aeb948fc8d28"}, {"name": "\u9890\u548c\u56ed\u897f\u95e8", "location": {"lat": 39.991999, "lng": 116.269675}, "address": "\u897f\u90ca\u7ebf", "province": "\u5317\u4eac\u5e02", "city": "\u5317\u4eac\u5e02", "area": "\u6d77\u6dc0\u533a", "detail": 1, "uid": "d52b0d6ff8e8dc985abbbc31"}, {"name": "\u9999\u5c71", "location": {"lat": 39.999821, "lng": 116.211114}, "address": "\u897f\u90ca\u7ebf", "province": "\u5317\u4eac\u5e02", "city": "\u5317\u4eac\u5e02", "area": "\u6d77\u6dc0\u533a", "detail": 1, "uid": "24081e60e748a60a0b69d98a"}, {"name": "\u690d\u7269\u56ed", "location": {"lat": 39.999254, "lng": 116.221373}, "address": "\u897f\u90ca\u7ebf", "province": "\u5317\u4eac\u5e02", "city": "\u5317\u4eac\u5e02", "area": "\u6d77\u6dc0\u533a", "detail": 1, "uid": "af96812f26cbdbe92b11d1ae"},{"name": "\u56fd\u5bb6\u56fe\u4e66\u9986", "location": {"lat": 39.948864, "lng": 116.331897}, "address": "\u5730\u94c14\u53f7\u7ebf\u5927\u5174\u7ebf;\u5730\u94c19\u53f7\u7ebf", "province": "\u5317\u4eac\u5e02", "city": "\u5317\u4eac\u5e02", "area": "\u6d77\u6dc0\u533a", "detail": 1, "uid": "a911c5ee29ebc3955ebe8628"}, {"name": "\u9b4f\u516c\u6751", "location": {"lat": 39.963457, "lng": 116.329874}, "address": "\u5730\u94c14\u53f7\u7ebf\u5927\u5174\u7ebf", "province": "\u5317\u4eac\u5e02", "city": "\u5317\u4eac\u5e02", "area": "\u6d77\u6dc0\u533a", "detail": 1, "uid": "a523992863e9afa5fadc8528"}, {"name": "\u4eba\u6c11\u5927\u5b66", "location": {"lat": 39.97277, "lng": 116.32809}, "address": "\u5730\u94c14\u53f7\u7ebf\u5927\u5174\u7ebf", "province": "\u5317\u4eac\u5e02", "city": "\u5317\u4eac\u5e02", "area": "\u6d77\u6dc0\u533a", "detail": 1, "uid": "ae80941a3f2fe5a796ec8428"}, {"name": "\u77e5\u6625\u91cc", "location": {"lat": 39.982061, "lng": 116.336091}, "address": "\u5730\u94c110\u53f7\u7ebf", "province": "\u5317\u4eac\u5e02", "city": "\u5317\u4eac\u5e02", "area": "\u6d77\u6dc0\u533a", "detail": 1, "uid": "9aac692139342d808afc06de"}, {"name": "\u6d77\u6dc0\u9ec4\u5e84", "location": {"lat": 39.981865, "lng": 116.324348}, "address": "\u5730\u94c110\u53f7\u7ebf;\u5730\u94c14\u53f7\u7ebf\u5927\u5174\u7ebf", "province": "\u5317\u4eac\u5e02", "city": "\u5317\u4eac\u5e02", "area": "\u6d77\u6dc0\u533a", "detail": 1, "uid": "c9332a87cf26bf7a14c905de"}, {"name": "\u77e5\u6625\u8def", "location": {"lat": 39.982065, "lng": 116.347619}, "address": "\u5730\u94c110\u53f7\u7ebf;\u5730\u94c113\u53f7\u7ebf", "province": "\u5317\u4eac\u5e02", "city": "\u5317\u4eac\u5e02", "area": "\u6d77\u6dc0\u533a", "detail": 1, "uid": "c17de10c884d0b59b120a8de"}, {"name": "\u957f\u6625\u6865", "location": {"lat": 39.964876, "lng": 116.300461}, "address": "\u5730\u94c110\u53f7\u7ebf", "province": "\u5317\u4eac\u5e02", "city": "\u5317\u4eac\u5e02", "area": "\u6d77\u6dc0\u533a", "detail": 1, "uid": "bf0373f82d1625bed7b74ecc"}, {"name": "\u706b\u5668\u8425", "location": {"lat": 39.972383, "lng": 116.29561}, "address": "\u5730\u94c110\u53f7\u7ebf", "province": "\u5317\u4eac\u5e02", "city": "\u5317\u4eac\u5e02", "area": "\u6d77\u6dc0\u533a", "detail": 1, "uid": "a503451e54ffab581cf74dcc"}, {"name": "\u82cf\u5dde\u8857", "location": {"lat": 39.981704, "lng": 116.312768}, "address": "\u5730\u94c110\u53f7\u7ebf", "province": "\u5317\u4eac\u5e02", "city": "\u5317\u4eac\u5e02", "area": "\u6d77\u6dc0\u533a", "detail": 1, "uid": "899278188c804968863304de"}, {"name": "\u5df4\u6c9f", "location": {"lat": 39.980549, "lng": 116.299578}, "address": "\u5730\u94c110\u53f7\u7ebf;\u897f\u90ca\u7ebf", "province": "\u5317\u4eac\u5e02", "city": "\u5317\u4eac\u5e02", "area": "\u6d77\u6dc0\u533a", "detail": 1, "uid": "1330ca48faf89de2ee74f863"}, {"name": "\u8f66\u516c\u5e84\u897f", "location": {"lat": 39.938074, "lng": 116.350644}, "address": "\u5730\u94c16\u53f7\u7ebf", "province": "\u5317\u4eac\u5e02", "city": "\u5317\u4eac\u5e02", "area": "\u897f\u57ce\u533a", "detail": 1, "uid": "5b3c1e33abceb3b597ca07cc"}, {"name": "\u767d\u77f3\u6865\u5357", "location": {"lat": 39.938399, "lng": 116.332038}, "address": "\u5730\u94c16\u53f7\u7ebf;\u5730\u94c19\u53f7\u7ebf", "province": "\u5317\u4eac\u5e02", "city": "\u5317\u4eac\u5e02", "area": "\u6d77\u6dc0\u533a", "detail": 1, "uid": "d93f1aa07af2be0baf080fcc"}, {"name": "\u52a8\u7269\u56ed", "location": {"lat": 39.943923, "lng": 116.345204}, "address": "\u5730\u94c14\u53f7\u7ebf\u5927\u5174\u7ebf", "province": "\u5317\u4eac\u5e02", "city": "\u5317\u4eac\u5e02", "area": "\u897f\u57ce\u533a", "detail": 1, "uid": "f6d78fec45db67f7714b8728"}, {"name": "\u8f66\u516c\u5e84", "location": {"lat": 39.938351, "lng": 116.361834}, "address": "\u5730\u94c12\u53f7\u7ebf;\u5730\u94c16\u53f7\u7ebf", "province": "\u5317\u4eac\u5e02", "city": "\u5317\u4eac\u5e02", "area": "\u897f\u57ce\u533a", "detail": 1, "uid": "fe261069b33af18a08a8d4de"}, {"name": "\u590d\u5174\u95e8", "location": {"lat": 39.913025, "lng": 116.363762}, "address": "\u5730\u94c11\u53f7\u7ebf;\u5730\u94c12\u53f7\u7ebf", "province": "\u5317\u4eac\u5e02", "city": "\u5317\u4eac\u5e02", "area": "\u897f\u57ce\u533a", "detail": 1, "uid": "afdc9d0548045569f23cbade"}, {"name": "\u5357\u793c\u58eb\u8def", "location": {"lat": 39.912979, "lng": 116.359221}, "address": "\u5730\u94c11\u53f7\u7ebf", "province": "\u5317\u4eac\u5e02", "city": "\u5317\u4eac\u5e02", "area": "\u897f\u57ce\u533a", "detail": 1, "uid": "8a0343f63b02ce4a6c20b9de"}, {"name": "\u6728\u6a28\u5730", "location": {"lat": 39.913125, "lng": 116.344097}, "address": "\u5730\u94c11\u53f7\u7ebf", "province": "\u5317\u4eac\u5e02", "city": "\u5317\u4eac\u5e02", "area": "\u897f\u57ce\u533a", "detail": 1, "uid": "ab916729e5f1bd4cf703b8de"}, {"name": "\u519b\u4e8b\u535a\u7269\u9986", "location": {"lat": 39.913343, "lng": 116.329314}, "address": "\u5730\u94c11\u53f7\u7ebf;\u5730\u94c19\u53f7\u7ebf", "province": "\u5317\u4eac\u5e02", "city": "\u5317\u4eac\u5e02", "area": "\u6d77\u6dc0\u533a", "detail": 1, "uid": "e55c41bbc12e63bf8405bfde"}, {"name": "\u83b2\u82b1\u6865", "location": {"lat": 39.904081, "lng": 116.316823}, "address": "\u5730\u94c110\u53f7\u7ebf", "province": "\u5317\u4eac\u5e02", "city": "\u5317\u4eac\u5e02", "area": "\u6d77\u6dc0\u533a", "detail": 1, "uid": "6734b3fc0e4b738515b54bcc"}, {"name": "\u897f\u9493\u9c7c\u53f0", "location": {"lat": 39.929671, "lng": 116.304186}, "address": "\u5730\u94c110\u53f7\u7ebf", "province": "\u5317\u4eac\u5e02", "city": "\u5317\u4eac\u5e02", "area": "\u6d77\u6dc0\u533a", "detail": 1, "uid": "79ea4fb7bf2e12b5b14c49cc"},{"name": "\u82b1\u56ed\u6865", "location": {"lat": 39.938382, "lng": 116.317559}, "address": "\u5730\u94c16\u53f7\u7ebf", "province": "\u5317\u4eac\u5e02", "city": "\u5317\u4eac\u5e02", "area": "\u6d77\u6dc0\u533a", "detail": 1, "uid": "4805ab87cf26bf7a14c905cc"}, {"name": "\u6148\u5bff\u5bfa", "location": {"lat": 39.93927, "lng": 116.300677}, "address": "\u5730\u94c110\u53f7\u7ebf;\u5730\u94c16\u53f7\u7ebf", "province": "\u5317\u4eac\u5e02", "city": "\u5317\u4eac\u5e02", "area": "\u6d77\u6dc0\u533a", "detail": 1, "uid": "06a4f9188c804968863304cc"}, {"name": "\u516c\u4e3b\u575f", "location": {"lat": 39.913509, "lng": 116.316696}, "address": "\u5730\u94c110\u53f7\u7ebf;\u5730\u94c11\u53f7\u7ebf", "province": "\u5317\u4eac\u5e02", "city": "\u5317\u4eac\u5e02", "area": "\u6d77\u6dc0\u533a", "detail": 1, "uid": "4d620e76e7bc47605af6bede"}, {"name": "\u4e07\u5bff\u8def", "location": {"lat": 39.91371, "lng": 116.30155}, "address": "\u5730\u94c11\u53f7\u7ebf", "province": "\u5317\u4eac\u5e02", "city": "\u5317\u4eac\u5e02", "area": "\u6d77\u6dc0\u533a", "detail": 1, "uid": "753fa548a87161f27e29bdde"}, {"name": "\u4e07\u5b89", "location": {"lat": 39.989737, "lng": 116.238603}, "address": "\u897f\u90ca\u7ebf", "province": "\u5317\u4eac\u5e02", "city": "\u5317\u4eac\u5e02", "area": "\u6d77\u6dc0\u533a", "detail": 1, "uid": "3a529a2f3b14a80e83a00ce4"}, {"name": "\u8336\u68da", "location": {"lat": 39.988011, "lng": 116.25461}, "address": "\u897f\u90ca\u7ebf", "province": "\u5317\u4eac\u5e02", "city": "\u5317\u4eac\u5e02", "area": "\u6d77\u6dc0\u533a", "detail": 1, "uid": "0c1f5a84ed3e11c7118824fe"}, {"name": "\u7389\u6cc9\u8def", "location": {"lat": 39.913501, "lng": 116.25947}, "address": "\u5730\u94c11\u53f7\u7ebf", "province": "\u5317\u4eac\u5e02", "city": "\u5317\u4eac\u5e02", "area": "\u77f3\u666f\u5c71\u533a", "detail": 1, "uid": "a27fa5a23a128501177643d9"}, {"name": "\u516b\u5b9d\u5c71", "location": {"lat": 39.913185, "lng": 116.242277}, "address": "\u5730\u94c11\u53f7\u7ebf", "province": "\u5317\u4eac\u5e02", "city": "\u5317\u4eac\u5e02", "area": "\u77f3\u666f\u5c71\u533a", "detail": 1, "uid": "a047555503a5bc5cbc4842d9"}, {"name": "\u7530\u6751", "location": {"lat": 39.935623, "lng": 116.259357}, "address": "\u5730\u94c16\u53f7\u7ebf", "province": "\u5317\u4eac\u5e02", "city": "\u5317\u4eac\u5e02", "area": "\u6d77\u6dc0\u533a", "detail": 1, "uid": "c572ece4bb6a544d17764350"}, {"name": "\u6768\u5e84", "location": {"lat": 39.934174, "lng": 116.194192}, "address": "\u5730\u94c16\u53f7\u7ebf", "province": "\u5317\u4eac\u5e02", "city": "\u5317\u4eac\u5e02", "area": "\u77f3\u666f\u5c71\u533a", "detail": 1, "uid": "c0ddbff33009f725601809d5"}, {"name": "\u5ed6\u516c\u5e84", "location": {"lat": 39.938025, "lng": 116.233537}, "address": "\u5730\u94c16\u53f7\u7ebf", "province": "\u5317\u4eac\u5e02", "city": "\u5317\u4eac\u5e02", "area": "\u6d77\u6dc0\u533a", "detail": 1, "uid": "1c4efb8e92463058fda77866"}, {"name": "\u516b\u89d2\u6e38\u4e50\u56ed", "location": {"lat": 39.913076, "lng": 116.21939}, "address": "\u5730\u94c11\u53f7\u7ebf", "province": "\u5317\u4eac\u5e02", "city": "\u5317\u4eac\u5e02", "area": "\u77f3\u666f\u5c71\u533a", "detail": 1, "uid": "ad28546df35285eb851541d9"}, {"name": "\u53e4\u57ce", "location": {"lat": 39.913414, "lng": 116.197072}, "address": "\u5730\u94c11\u53f7\u7ebf", "province": "\u5317\u4eac\u5e02", "city": "\u5317\u4eac\u5e02", "area": "\u77f3\u666f\u5c71\u533a", "detail": 1, "uid": "291c5802f26a751cbca240d9"}, {"name": "\u897f\u9ec4\u6751", "location": {"lat": 39.939411, "lng": 116.213386}, "address": "\u5730\u94c16\u53f7\u7ebf", "province": "\u5317\u4eac\u5e02", "city": "\u5317\u4eac\u5e02", "area": "\u77f3\u666f\u5c71\u533a", "detail": 1, "uid": "56fe760bb5e7c921d3f49e50"}, {"name": "\u6e29\u9633\u8def", "location": {"lat": 40.074892, "lng": 116.167825}, "address": "\u5730\u94c116\u53f7\u7ebf", "province": "\u5317\u4eac\u5e02", "city": "\u5317\u4eac\u5e02", "area": "\u6d77\u6dc0\u533a", "detail": 1, "uid": "5da91083893b370958f6beda"}, {"name": "\u5317\u5b89\u6cb3", "location": {"lat": 40.073863, "lng": 116.136825}, "address": "\u5730\u94c116\u53f7\u7ebf", "province": "\u5317\u4eac\u5e02", "city": "\u5317\u4eac\u5e02", "area": "\u6d77\u6dc0\u533a", "detail": 1, "uid": "c74820aaf87c3b266c476023"}, {"name": "\u91d1\u5b89\u6865", "location": {"lat": 39.929962, "lng": 116.169034}, "address": "\u5730\u94c16\u53f7\u7ebf;\u5730\u94c1S1\u7ebf", "province": "\u5317\u4eac\u5e02", "city": "\u5317\u4eac\u5e02", "area": "\u77f3\u666f\u5c71\u533a", "detail": 1, "uid": "4d39b0a0751f44c988b9886b"}, {"name": "\u56db\u9053\u6865", "location": {"lat": 39.922119, "lng": 116.140356}, "address": "\u5730\u94c1S1\u7ebf", "province": "\u5317\u4eac\u5e02", "city": "\u5317\u4eac\u5e02", "area": "\u95e8\u5934\u6c9f\u533a", "detail": 1, "uid": "edf3d128b55a918171210b74"}, {"name": "\u6865\u6237\u8425", "location": {"lat": 39.918355, "lng": 116.132271}, "address": "\u5730\u94c1S1\u7ebf", "province": "\u5317\u4eac\u5e02", "city": "\u5317\u4eac\u5e02", "area": "\u95e8\u5934\u6c9f\u533a", "detail": 1, "uid": "3cb0b6f05506e0b30f0e6bb0"}, {"name": "\u4e0a\u5cb8", "location": {"lat": 39.911139, "lng": 116.128714}, "address": "\u5730\u94c1S1\u7ebf", "province": "\u5317\u4eac\u5e02", "city": "\u5317\u4eac\u5e02", "area": "\u95e8\u5934\u6c9f\u533a", "detail": 1, "uid": "ef7a9f2e9bafc62d88fc062c"},{"name": "\u6e7e\u5b50", "location": {"lat": 39.895902, "lng": 116.3344}, "address": "\u5730\u94c17\u53f7\u7ebf", "province": "\u5317\u4eac\u5e02", "city": "\u5317\u4eac\u5e02", "area": "\u897f\u57ce\u533a", "detail": 1, "uid": "9d7d2434afa857b41ce99904"}, {"name": "\u6ce5\u6d3c", "location": {"lat": 39.8647, "lng": 116.310813}, "address": "\u5730\u94c110\u53f7\u7ebf", "province": "\u5317\u4eac\u5e02", "city": "\u5317\u4eac\u5e02", "area": "\u4e30\u53f0\u533a", "detail": 1, "uid": "a4e20fcaa35f3ba55c0d02cd"}, {"name": "\u5927\u4e95", "location": {"lat": 39.871571, "lng": 116.281826}, "address": "\u5730\u94c114\u53f7\u7ebf\u897f\u6bb5", "province": "\u5317\u4eac\u5e02", "city": "\u5317\u4eac\u5e02", "area": "\u4e30\u53f0\u533a", "detail": 1, "uid": "107c62223da7fcbc87420ecd"}, {"name": "\u897f\u5c40", "location": {"lat": 39.87224, "lng": 116.309898}, "address": "\u5730\u94c110\u53f7\u7ebf;\u5730\u94c114\u53f7\u7ebf\u897f\u6bb5", "province": "\u5317\u4eac\u5e02", "city": "\u5317\u4eac\u5e02", "area": "\u4e30\u53f0\u533a", "detail": 1, "uid": "d851d2ccaab2fb7f410245cc"}, {"name": "\u4e30\u53f0\u4e1c\u5927\u8857", "location": {"lat": 39.86144, "lng": 116.300215}, "address": "\u5730\u94c19\u53f7\u7ebf", "province": "\u5317\u4eac\u5e02", "city": "\u5317\u4eac\u5e02", "area": "\u4e30\u53f0\u533a", "detail": 1, "uid": "689b5a3a996927a041ab9a63"}, {"name": "\u516d\u91cc\u6865\u4e1c", "location": {"lat": 39.89278, "lng": 116.321463}, "address": "\u5730\u94c19\u53f7\u7ebf", "province": "\u5317\u4eac\u5e02", "city": "\u5317\u4eac\u5e02", "area": "\u4e30\u53f0\u533a", "detail": 1, "uid": "85d1a7294abe1ab9f42310ac"}, {"name": "\u4e03\u91cc\u5e84", "location": {"lat": 39.873015, "lng": 116.300553}, "address": "\u5730\u94c114\u53f7\u7ebf\u897f\u6bb5;\u5730\u94c19\u53f7\u7ebf", "province": "\u5317\u4eac\u5e02", "city": "\u5317\u4eac\u5e02", "area": "\u4e30\u53f0\u533a", "detail": 1, "uid": "36a965f0b54f373df32d837e"}, {"name": "\u8349\u6865", "location": {"lat": 39.851597, "lng": 116.359241}, "address": "\u5730\u94c110\u53f7\u7ebf", "province": "\u5317\u4eac\u5e02", "city": "\u5317\u4eac\u5e02", "area": "\u4e30\u53f0\u533a", "detail": 1, "uid": "3875d63a16104a0cb44f54cc"}, {"name": "\u7eaa\u5bb6\u5e99", "location": {"lat": 39.850124, "lng": 116.339533}, "address": "\u5730\u94c110\u53f7\u7ebf", "province": "\u5317\u4eac\u5e02", "city": "\u5317\u4eac\u5e02", "area": "\u4e30\u53f0\u533a", "detail": 1, "uid": "9ce7f868f13d905e73455bcc"}, {"name": "\u9996\u7ecf\u8d38", "location": {"lat": 39.85032, "lng": 116.326613}, "address": "\u5730\u94c110\u53f7\u7ebf", "province": "\u5317\u4eac\u5e02", "city": "\u5317\u4eac\u5e02", "area": "\u4e30\u53f0\u533a", "detail": 1, "uid": "688753fadf6f7773a9175acc"}, {"name": "\u4e30\u53f0\u7ad9", "location": {"lat": 39.856026, "lng": 116.311475}, "address": "\u5730\u94c110\u53f7\u7ebf", "province": "\u5317\u4eac\u5e02", "city": "\u5317\u4eac\u5e02", "area": "\u4e30\u53f0\u533a", "detail": 1, "uid": "b8d48458bdeb6544e11103cd"}, {"name": "\u90ed\u516c\u5e84", "location": {"lat": 39.820764, "lng": 116.308567}, "address": "\u5730\u94c19\u53f7\u7ebf;\u5730\u94c1\u623f\u5c71\u7ebf", "province": "\u5317\u4eac\u5e02", "city": "\u5317\u4eac\u5e02", "area": "\u4e30\u53f0\u533a", "detail": 1, "uid": "b69feda07af2be0bae080fac"}, {"name": "\u79d1\u6021\u8def", "location": {"lat": 39.838664, "lng": 116.303808}, "address": "\u5730\u94c19\u53f7\u7ebf", "province": "\u5317\u4eac\u5e02", "city": "\u5317\u4eac\u5e02", "area": "\u4e30\u53f0\u533a", "detail": 1, "uid": "56a05d624525bbe9c4f50dac"}, {"name": "\u4e30\u53f0\u5357\u8def", "location": {"lat": 39.847201, "lng": 116.302854}, "address": "\u5730\u94c19\u53f7\u7ebf", "province": "\u5317\u4eac\u5e02", "city": "\u5317\u4eac\u5e02", "area": "\u4e30\u53f0\u533a", "detail": 1, "uid": "bc9e731d8d65c36b83a00cac"}, {"name": "\u5927\u74e6\u7a91", "location": {"lat": 39.865215, "lng": 116.246953}, "address": "\u5730\u94c114\u53f7\u7ebf\u897f\u6bb5", "province": "\u5317\u4eac\u5e02", "city": "\u5317\u4eac\u5e02", "area": "\u4e30\u53f0\u533a", "detail": 1, "uid": "a6be5df5384596412eb908cd"}, {"name": "\u90ed\u5e84\u5b50", "location": {"lat": 39.870755, "lng": 116.259835}, "address": "\u5730\u94c114\u53f7\u7ebf\u897f\u6bb5", "province": "\u5317\u4eac\u5e02", "city": "\u5317\u4eac\u5e02", "area": "\u4e30\u53f0\u533a", "detail": 1, "uid": "d93c1aa07af2be0baf080fcd"}, {"name": "\u5f20\u90ed\u5e84", "location": {"lat": 39.864102, "lng": 116.193406}, "address": "\u5730\u94c114\u53f7\u7ebf\u897f\u6bb5", "province": "\u5317\u4eac\u5e02", "city": "\u5317\u4eac\u5e02", "area": "\u4e30\u53f0\u533a", "detail": 1, "uid": "a15c370891be585133870acd"}, {"name": "\u56ed\u535a\u56ed", "location": {"lat": 39.867099, "lng": 116.208364}, "address": "\u5730\u94c114\u53f7\u7ebf\u897f\u6bb5", "province": "\u5317\u4eac\u5e02", "city": "\u5317\u4eac\u5e02", "area": "\u4e30\u53f0\u533a", "detail": 1, "uid": "e0eb1f42100f17f0611809cd"}, {"name": "\u9ad8\u7c73\u5e97\u5317", "location": {"lat": 39.779548, "lng": 116.337331}, "address": "\u5730\u94c14\u53f7\u7ebf\u5927\u5174\u7ebf", "province": "\u5317\u4eac\u5e02", "city": "\u5317\u4eac\u5e02", "area": "\u5927\u5174\u533a", "detail": 1, "uid": "237e50204d3b1e9b9968b46d"}, {"name": "\u897f\u7ea2\u95e8", "location": {"lat": 39.795445, "lng": 116.335169}, "address": "\u5730\u94c14\u53f7\u7ebf\u5927\u5174\u7ebf", "province": "\u5317\u4eac\u5e02", "city": "\u5317\u4eac\u5e02", "area": "\u5927\u5174\u533a", "detail": 1, "uid": "5778cb03d327cb7527d2bb6d"},{"name": "\u5927\u8446\u53f0", "location": {"lat": 39.814112, "lng": 116.298159}, "address": "\u5730\u94c1\u623f\u5c71\u7ebf", "province": "\u5317\u4eac\u5e02", "city": "\u5317\u4eac\u5e02", "area": "\u4e30\u53f0\u533a", "detail": 1, "uid": "326646f755192ee8dad8916d"}, {"name": "\u9ec4\u6751\u706b\u8f66\u7ad9", "location": {"lat": 39.728326, "lng": 116.339482}, "address": "\u5730\u94c14\u53f7\u7ebf\u5927\u5174\u7ebf", "province": "\u5317\u4eac\u5e02", "city": "\u5317\u4eac\u5e02", "area": "\u5927\u5174\u533a", "detail": 1, "uid": "53524be5681fc6473804b16d"}, {"name": "\u9ec4\u6751\u897f\u5927\u8857", "location": {"lat": 39.73738, "lng": 116.339128}, "address": "\u5730\u94c14\u53f7\u7ebf\u5927\u5174\u7ebf", "province": "\u5317\u4eac\u5e02", "city": "\u5317\u4eac\u5e02", "area": "\u5927\u5174\u533a", "detail": 1, "uid": "4115b62fc8e2ee51ff0eb06d"}, {"name": "\u6e05\u6e90\u8def", "location": {"lat": 39.748354, "lng": 116.339019}, "address": "\u5730\u94c14\u53f7\u7ebf\u5927\u5174\u7ebf", "province": "\u5317\u4eac\u5e02", "city": "\u5317\u4eac\u5e02", "area": "\u5927\u5174\u533a", "detail": 1, "uid": "f0afa56835284eacd718b76d"}, {"name": "\u67a3\u56ed", "location": {"lat": 39.759079, "lng": 116.338975}, "address": "\u5730\u94c14\u53f7\u7ebf\u5927\u5174\u7ebf", "province": "\u5317\u4eac\u5e02", "city": "\u5317\u4eac\u5e02", "area": "\u5927\u5174\u533a", "detail": 1, "uid": "24411bd2266fb36677e5b66d"}, {"name": "\u9ad8\u7c73\u5e97\u5357", "location": {"lat": 39.769059, "lng": 116.33841}, "address": "\u5730\u94c14\u53f7\u7ebf\u5927\u5174\u7ebf", "province": "\u5317\u4eac\u5e02", "city": "\u5317\u4eac\u5e02", "area": "\u5927\u5174\u533a", "detail": 1, "uid": "b95dce3c98d5a0218a2fb56d"}, {"name": "\u7a3b\u7530", "location": {"lat": 39.800509, "lng": 116.225429}, "address": "\u5730\u94c1\u623f\u5c71\u7ebf", "province": "\u5317\u4eac\u5e02", "city": "\u5317\u4eac\u5e02", "area": "\u623f\u5c71\u533a", "detail": 1, "uid": "808ad61ea8a6e39141e1926d"}, {"name": "\u7bf1\u7b06\u623f", "location": {"lat": 39.766697, "lng": 116.195928}, "address": "\u5730\u94c1\u623f\u5c71\u7ebf", "province": "\u5317\u4eac\u5e02", "city": "\u5317\u4eac\u5e02", "area": "\u623f\u5c71\u533a", "detail": 1, "uid": "ebdce6d8fee6635997f08c6d"}, {"name": "\u957f\u9633", "location": {"lat": 39.769411, "lng": 116.219263}, "address": "\u5730\u94c1\u623f\u5c71\u7ebf", "province": "\u5317\u4eac\u5e02", "city": "\u5317\u4eac\u5e02", "area": "\u623f\u5c71\u533a", "detail": 1, "uid": "11632ba165df78a85a10936d"}, {"name": "\u77f3\u5382", "location": {"lat": 39.895137, "lng": 116.106975}, "address": "\u5730\u94c1S1\u7ebf", "province": "\u5317\u4eac\u5e02", "city": "\u5317\u4eac\u5e02", "area": "\u95e8\u5934\u6c9f\u533a", "detail": 1, "uid": "c32bc896c9d017370b69d987"}, {"name": "\u6817\u56ed\u5e84", "location": {"lat": 39.901771, "lng": 116.129827}, "address": "\u5730\u94c1S1\u7ebf", "province": "\u5317\u4eac\u5e02", "city": "\u5317\u4eac\u5e02", "area": "\u95e8\u5934\u6c9f\u533a", "detail": 1, "uid": "a132268badd8b1e6b34c49ac"}, {"name": "\u5c0f\u56ed", "location": {"lat": 39.896146, "lng": 116.121303}, "address": "\u5730\u94c1S1\u7ebf", "province": "\u5317\u4eac\u5e02", "city": "\u5317\u4eac\u5e02", "area": "\u95e8\u5934\u6c9f\u533a", "detail": 1, "uid": "d6f5420c924ab8cb5cbe86df"}, {"name": "\u826f\u4e61\u5927\u5b66\u57ce\u897f", "location": {"lat": 39.7296, "lng": 116.162684}, "address": "\u5730\u94c1\u623f\u5c71\u7ebf", "province": "\u5317\u4eac\u5e02", "city": "\u5317\u4eac\u5e02", "area": "\u623f\u5c71\u533a", "detail": 1, "uid": "978e74fca993829689b9886d"}, {"name": "\u826f\u4e61\u5927\u5b66\u57ce", "location": {"lat": 39.729499, "lng": 116.182872}, "address": "\u5730\u94c1\u623f\u5c71\u7ebf", "province": "\u5317\u4eac\u5e02", "city": "\u5317\u4eac\u5e02", "area": "\u623f\u5c71\u533a", "detail": 1, "uid": "a56dabf0f7fb2fddbbdf8f6d"}, {"name": "\u826f\u4e61\u5927\u5b66\u57ce\u5317", "location": {"lat": 39.736109, "lng": 116.189861}, "address": "\u5730\u94c1\u623f\u5c71\u7ebf", "province": "\u5317\u4eac\u5e02", "city": "\u5317\u4eac\u5e02", "area": "\u623f\u5c71\u533a", "detail": 1, "uid": "bf9c661028f771b516948e6d"}, {"name": "\u5e7f\u9633\u57ce", "location": {"lat": 39.754016, "lng": 116.191395}, "address": "\u5730\u94c1\u623f\u5c71\u7ebf", "province": "\u5317\u4eac\u5e02", "city": "\u5317\u4eac\u5e02", "area": "\u623f\u5c71\u533a", "detail": 1, "uid": "27a57de1e517aeb948fc8d6d"}, {"name": "\u82cf\u5e84", "location": {"lat": 39.729197, "lng": 116.131898}, "address": "\u5730\u94c1\u623f\u5c71\u7ebf", "province": "\u5317\u4eac\u5e02", "city": "\u5317\u4eac\u5e02", "area": "\u623f\u5c71\u533a", "detail": 1, "uid": "14ea87df36beb45380288a6d"}, {"name": "\u826f\u4e61\u5357\u5173", "location": {"lat": 39.72947, "lng": 116.147255}, "address": "\u5730\u94c1\u623f\u5c71\u7ebf", "province": "\u5317\u4eac\u5e02", "city": "\u5317\u4eac\u5e02", "area": "\u623f\u5c71\u533a", "detail": 1, "uid": "49822a9404d8b0f08d1a896d"}, {"name": "\u960e\u6751\u4e1c", "location": {"lat": 39.734677, "lng": 116.107001}, "address": "\u5730\u94c1\u623f\u5c71\u7ebf;\u5730\u94c1\u71d5\u623f\u7ebf", "province": "\u5317\u4eac\u5e02", "city": "\u5317\u4eac\u5e02", "area": "\u623f\u5c71\u533a", "detail": 1, "uid": "fabf32487c9b8287b817e7db"}, {"name": "\u7d2b\u8349\u575e", "location": {"lat": 39.730266, "lng": 116.093276}, "address": "\u5730\u94c1\u71d5\u623f\u7ebf", "province": "\u5317\u4eac\u5e02", "city": "\u5317\u4eac\u5e02", "area": "\u623f\u5c71\u533a", "detail": 1, "uid": "e3ba8e85fde9a08136b06c89"},{"name": "\u751f\u7269\u533b\u836f\u57fa\u5730", "location": {"lat": 39.692307, "lng": 116.328329}, "address": "\u5730\u94c14\u53f7\u7ebf\u5927\u5174\u7ebf", "province": "\u5317\u4eac\u5e02", "city": "\u5317\u4eac\u5e02", "area": "\u5927\u5174\u533a", "detail": 1, "uid": "0c65c30e8703c20b0b5cb36d"}, {"name": "\u4e49\u548c\u5e84", "location": {"lat": 39.718296, "lng": 116.325538}, "address": "\u5730\u94c14\u53f7\u7ebf\u5927\u5174\u7ebf", "province": "\u5317\u4eac\u5e02", "city": "\u5317\u4eac\u5e02", "area": "\u5927\u5174\u533a", "detail": 1, "uid": "ad98eb184009014dfb42b26d"}, {"name": "\u5929\u5bab\u9662", "location": {"lat": 39.676122, "lng": 116.326437}, "address": "\u5730\u94c14\u53f7\u7ebf\u5927\u5174\u7ebf", "province": "\u5317\u4eac\u5e02", "city": "\u5317\u4eac\u5e02", "area": "\u5927\u5174\u533a", "detail": 1, "uid": "2373040444453215c256ac6d"}, {"name": "\u661f\u57ce", "location": {"lat": 39.719734, "lng": 116.067772}, "address": "\u5730\u94c1\u71d5\u623f\u7ebf", "province": "\u5317\u4eac\u5e02", "city": "\u5317\u4eac\u5e02", "area": "\u623f\u5c71\u533a", "detail": 1, "uid": "69a602e4d3cc202b2e4733f4"}, {"name": "\u960e\u6751", "location": {"lat": 39.722483, "lng": 116.086807}, "address": "\u5730\u94c1\u71d5\u623f\u7ebf", "province": "\u5317\u4eac\u5e02", "city": "\u5317\u4eac\u5e02", "area": "\u623f\u5c71\u533a", "detail": 1, "uid": "48b982c32a78cbe40189722d"}, {"name": "\u5927\u77f3\u6cb3\u4e1c", "location": {"lat": 39.716115, "lng": 116.046084}, "address": "\u5730\u94c1\u71d5\u623f\u7ebf", "province": "\u5317\u4eac\u5e02", "city": "\u5317\u4eac\u5e02", "area": "\u623f\u5c71\u533a", "detail": 1, "uid": "11525aaf4f3b1411343a71a3"}, {"name": "\u9a6c\u5404\u5e84", "location": {"lat": 39.711154, "lng": 116.023054}, "address": "\u5730\u94c1\u71d5\u623f\u7ebf", "province": "\u5317\u4eac\u5e02", "city": "\u5317\u4eac\u5e02", "area": "\u623f\u5c71\u533a", "detail": 1, "uid": "bcaaab7ec9bade3809b93a02"}, {"name": "\u9976\u4e50\u5e9c", "location": {"lat": 39.707343, "lng": 116.012607}, "address": "\u5730\u94c1\u71d5\u623f\u7ebf", "province": "\u5317\u4eac\u5e02", "city": "\u5317\u4eac\u5e02", "area": "\u623f\u5c71\u533a", "detail": 1, "uid": "cfc687b8f76b6b6915a19014"}, {"name": "\u623f\u5c71\u57ce\u5173", "location": {"lat": 39.711685, "lng": 115.996258}, "address": "\u5730\u94c1\u71d5\u623f\u7ebf", "province": "\u5317\u4eac\u5e02", "city": "\u5317\u4eac\u5e02", "area": "\u623f\u5c71\u533a", "detail": 1, "uid": "75e029ecec27276fe215f942"}, {"name": "\u71d5\u5c71", "location": {"lat": 39.725203, "lng": 115.980152}, "address": "\u5730\u94c1\u71d5\u623f\u7ebf", "province": "\u5317\u4eac\u5e02", "city": "\u5317\u4eac\u5e02", "area": "\u623f\u5c71\u533a", "detail": 1, "uid": "194e55c5212df2b79ff779a5"}, {"name": "\u795e\u5dde\u79df\u8f66(\u77f3\u666f\u5c71\u53e4\u57ce\u5730\u94c1\u7ad9\u9001\u8f66\u70b9)", "location": {"lat": 39.913715, "lng": 116.196106}, "address": "\u5317\u4eac\u5e02\u77f3\u666f\u5c71\u533a\u77f3\u666f\u5c71\u8def\u4e0e\u53e4\u57ce\u5c0f\u8857\u4ea4\u53e3\u4e1c\u4fa7(1\u53f7\u7ebf\u53e4\u57ce\u5730\u94c1\u7ad9A\u53e3)", "province": "\u5317\u4eac\u5e02", "city": "\u5317\u4eac\u5e02", "area": "\u77f3\u666f\u5c71\u533a", "detail": 1, "uid": "7b020bfc56a45985b426556d"}, {"name": "\u4e00\u55e8\u79df\u8f66(\u6731\u8f9b\u5e84\u5730\u94c1\u7ad9\u4fbf\u6377\u70b9)", "location": {"lat": 40.113315, "lng": 116.318973}, "address": "\u5317\u4eac\u5e02\u660c\u5e73\u533a\u56de\u660c\u4e1c\u8def\u6731\u8f9b\u5e84\u5730\u94c1\u7ad9\u5bf9\u9762", "province": "\u5317\u4eac\u5e02", "city": "\u5317\u4eac\u5e02", "area": "\u660c\u5e73\u533a", "detail": 1, "uid": "cd138deed369f4987dc876b6"}]